,City,Cloudiness,Country,Date,Humidity,Lat,Lng,Max_temp,Wind_speed
1,bluff,0.0,AU,1547353035.0,42.0,-23.58,149.07,91.98,10.92
2,santona,90.0,ES,1547350200.0,93.0,43.44,-3.46,48.2,5.82
3,lompoc,20.0,US,1547351760.0,89.0,34.64,-120.46,53.96,3.36
4,atuona,68.0,PF,1547353035.0,100.0,-9.8,-139.03,80.19,15.84
5,tuatapere,8.0,NZ,1547353036.0,86.0,-46.13,167.69,58.68,10.87
6,baoqing,0.0,CN,1547353036.0,56.0,46.32,132.2,20.16,3.53
7,mar del plata,0.0,AR,1547353037.0,48.0,-46.43,-67.52,55.98,5.99
8,komsomolskiy,68.0,RU,1547353037.0,82.0,67.55,63.78,5.22,15.17
9,ribeira grande,32.0,PT,1547353037.0,97.0,38.52,-28.7,62.01,21.39
10,punta arenas,75.0,CL,1547352000.0,65.0,-53.16,-70.91,46.4,31.09
11,hermanus,32.0,ZA,1547353038.0,81.0,-34.42,19.24,57.69,9.42
12,cabo san lucas,5.0,MX,1547350920.0,68.0,22.89,-109.91,68.0,3.36
13,saint george,20.0,GR,1547351400.0,86.0,39.45,22.34,33.8,3.38
14,nikolskoye,90.0,RU,1547350200.0,92.0,59.7,30.79,24.8,13.42
15,dikson,76.0,RU,1547353040.0,100.0,73.51,80.55,-14.86,31.9
16,newton,75.0,US,1547351700.0,85.0,41.7,-93.05,30.56,6.93
17,albany,75.0,US,1547351820.0,53.0,42.65,-73.75,17.06,5.82
18,garissa,0.0,KE,1547353041.0,83.0,-0.46,39.64,71.01,5.73
19,busselton,0.0,AU,1547353041.0,86.0,-33.64,115.35,72.36,18.07
20,hilo,90.0,US,1547351580.0,75.0,19.71,-155.08,73.04,3.36
21,saint-joseph,0.0,FR,1547352000.0,74.0,43.56,6.97,48.2,4.7
22,windhoek,0.0,NA,1547348400.0,83.0,-22.57,17.08,57.2,5.82
23,pasni,12.0,PK,1547353042.0,98.0,25.26,63.48,66.42,9.42
24,tamandare,76.0,BR,1547353043.0,96.0,-8.28,-70.75,71.01,2.53
25,sur,8.0,OM,1547353043.0,100.0,22.57,59.53,69.75,4.38
26,hailar,44.0,CN,1547353044.0,76.0,49.2,119.7,3.78,7.07
27,rikitea,80.0,PF,1547352982.0,99.0,-23.12,-134.97,79.29,13.6
28,avarua,75.0,CK,1547352000.0,83.0,-21.21,-159.78,80.6,6.93
29,sao joao da barra,48.0,BR,1547353044.0,96.0,-21.64,-41.05,79.38,14.67
30,petauke,92.0,ZM,1547353045.0,99.0,-14.25,31.33,66.24,4.88
31,palmer,0.0,AU,1547350200.0,9.0,-34.85,139.16,91.4,12.75
32,klaksvik,92.0,FO,1547351400.0,93.0,62.23,-6.59,41.0,13.87
33,tasiilaq,36.0,GL,1547351400.0,67.0,65.61,-37.64,17.6,3.36
34,belaya gora,48.0,RU,1547353046.0,0.0,68.54,146.19,-39.61,3.38
35,port elizabeth,90.0,US,1547351760.0,84.0,39.31,-74.98,26.96,4.7
36,los llanos de aridane,0.0,ES,1547350200.0,62.0,28.66,-17.92,59.0,8.05
37,alyangula,40.0,AU,1547348400.0,79.0,-13.85,136.42,86.0,12.75
38,vestmannaeyjar,36.0,IS,1547353048.0,100.0,63.44,-20.27,34.92,10.92
39,yellowknife,5.0,CA,1547348400.0,75.0,62.45,-114.38,-14.81,8.05
40,tutin,88.0,RS,1547353049.0,85.0,42.99,20.34,21.42,2.82
41,ponta do sol,32.0,BR,1547353049.0,88.0,-20.63,-46.0,67.23,3.38
42,gat,0.0,SN,1547350200.0,88.0,14.69,-16.54,69.8,12.75
43,neiafu,75.0,TO,1547352000.0,78.0,-18.65,-173.98,82.4,11.41
44,sogne,32.0,NO,1547351400.0,100.0,58.08,7.82,30.2,3.36
45,havre-saint-pierre,90.0,CA,1547348400.0,72.0,50.23,-63.6,15.8,9.17
46,muros,0.0,ES,1547350200.0,93.0,42.77,-9.06,39.2,5.82
47,acapulco,40.0,MX,1547351100.0,78.0,16.86,-99.88,80.6,5.82
48,cape town,20.0,ZA,1547352000.0,93.0,-33.93,18.42,62.6,10.29
49,upernavik,32.0,GL,1547353052.0,100.0,72.79,-56.15,-5.77,9.35
50,carnarvon,0.0,ZA,1547353052.0,94.0,-30.97,22.13,50.31,6.22
51,coihaique,0.0,CL,1547352000.0,70.0,-45.58,-72.07,46.4,2.24
52,mahebourg,40.0,MU,1547352000.0,70.0,-20.41,57.7,84.2,11.41
53,east london,0.0,ZA,1547352000.0,77.0,-33.02,27.91,68.0,6.93
54,mataura,76.0,NZ,1547353054.0,86.0,-46.19,168.86,59.49,8.75
55,cruzilia,0.0,BR,1547353054.0,87.0,-21.84,-44.81,67.59,9.91
56,ushuaia,75.0,AR,1547352000.0,70.0,-54.81,-68.31,44.6,29.97
57,katsuura,20.0,JP,1547352000.0,53.0,33.93,134.5,50.0,13.87
58,thompson,90.0,CA,1547350620.0,85.0,55.74,-97.86,14.0,8.05
59,serenje,92.0,ZM,1547353056.0,98.0,-13.23,30.22,64.89,10.42
60,lavrentiya,8.0,RU,1547353056.0,92.0,65.58,-170.99,-11.08,28.7
61,bonthe,44.0,SL,1547353056.0,83.0,7.53,-12.5,79.92,5.55
62,sao filipe,20.0,CV,1547353057.0,100.0,14.9,-24.5,71.28,9.08
63,kiunga,36.0,PG,1547353057.0,85.0,-6.12,141.3,81.99,2.48
64,adrar,0.0,DZ,1547348400.0,44.0,27.87,-0.29,37.4,9.17
65,puerto ayora,20.0,EC,1547353058.0,99.0,-0.74,-90.35,76.68,10.54
66,rawson,0.0,AR,1547353058.0,51.0,-43.3,-65.11,60.48,10.8
67,ancud,48.0,CL,1547352000.0,100.0,-41.87,-73.83,41.0,4.7
68,hobart,0.0,AU,1547350200.0,33.0,-42.88,147.33,71.6,16.11
69,myitkyina,0.0,MM,1547353059.0,76.0,25.38,97.4,62.82,2.71
70,erdenet,12.0,MN,1547353059.0,45.0,49.03,104.04,-3.79,6.22
71,jamestown,0.0,AU,1547353060.0,25.0,-33.21,138.6,89.46,9.24
72,minab,0.0,IR,1547352000.0,68.0,27.15,57.07,53.6,2.24
73,severo-kurilsk,80.0,RU,1547353061.0,95.0,50.68,156.12,33.3,17.36
74,mehamn,80.0,NO,1547353061.0,87.0,71.03,27.85,30.33,11.1
75,shemonaikha,36.0,KZ,1547353061.0,67.0,50.63,81.92,1.98,3.71
76,broken hill,0.0,AU,1547348400.0,15.0,-31.97,141.45,93.2,10.29
77,kaeo,92.0,NZ,1547353062.0,51.0,-35.1,173.78,77.31,9.8
78,faanui,92.0,PF,1547353063.0,100.0,-16.48,-151.75,82.44,22.32
79,inhambane,24.0,MZ,1547353063.0,98.0,-23.87,35.38,80.46,5.39
80,bredasdorp,24.0,ZA,1547352000.0,63.0,-34.53,20.04,64.4,10.29
81,saint-philippe,1.0,CA,1547351700.0,86.0,45.36,-73.48,3.2,2.98
82,vostok,0.0,RU,1547353065.0,64.0,46.45,135.83,16.29,3.04
83,isangel,64.0,VU,1547353065.0,100.0,-19.55,169.27,79.38,4.76
84,coahuayana,12.0,MX,1547353065.0,78.0,18.62,-100.35,62.46,2.48
85,damghan,0.0,IR,1547353066.0,73.0,36.17,54.34,21.33,2.53
86,flinders,32.0,AU,1547353066.0,75.0,-34.58,150.85,76.59,6.11
87,dobryanka,75.0,RU,1547350200.0,91.0,58.45,56.42,32.0,15.66
88,mazatlan,5.0,MX,1547350920.0,31.0,23.22,-106.42,73.4,4.7
89,nukus,40.0,UZ,1547350200.0,80.0,42.46,59.61,35.6,16.11
90,ucluelet,92.0,CA,1547353067.0,96.0,48.94,-125.55,45.54,2.08
91,bambous virieux,40.0,MU,1547352000.0,70.0,-20.34,57.76,84.2,11.41
92,fortuna,0.0,ES,1547350200.0,59.0,38.18,-1.13,41.0,9.17
93,hithadhoo,8.0,MV,1547353069.0,100.0,-0.6,73.08,81.36,5.21
94,nome,1.0,US,1547351700.0,65.0,30.04,-94.42,51.08,11.41
95,cairns,56.0,AU,1547350200.0,58.0,-16.92,145.77,87.8,17.22
96,lebu,0.0,ET,1547353069.0,53.0,8.96,38.73,30.06,2.98
97,port alfred,32.0,ZA,1547353070.0,92.0,-33.59,26.89,67.41,7.74
98,norman wells,40.0,CA,1547348400.0,65.0,65.28,-126.83,-36.41,6.93
99,qaanaaq,0.0,GL,1547353071.0,66.0,77.48,-69.36,-22.87,10.92
100,arraial do cabo,0.0,BR,1547353071.0,90.0,-22.97,-42.02,76.5,13.27
101,fairbanks,20.0,US,1547351880.0,73.0,64.84,-147.72,-18.05,4.32
102,souillac,90.0,FR,1547350200.0,93.0,45.6,-0.6,48.2,5.82
103,kutum,0.0,SD,1547353072.0,69.0,14.2,24.66,47.7,1.52
104,cedar city,90.0,US,1547351580.0,92.0,37.68,-113.06,26.96,3.36
105,broome,80.0,GB,1547351760.0,81.0,52.47,1.45,50.72,19.46
106,vaini,0.0,IN,1547348400.0,56.0,15.34,74.49,71.6,6.93
107,dibrugarh,0.0,IN,1547348400.0,77.0,27.48,94.9,60.8,5.82
108,tuktoyaktuk,20.0,CA,1547348400.0,66.0,69.44,-133.03,-31.01,10.29
109,savannah bight,80.0,HN,1547353074.0,100.0,16.45,-85.85,77.4,7.34
110,juegang,8.0,CN,1547353075.0,91.0,32.31,121.18,45.0,8.12
111,kano,0.0,NG,1547348400.0,33.0,11.99,8.53,62.6,5.82
112,torbay,90.0,CA,1547348400.0,92.0,47.66,-52.73,26.6,12.75
113,batticaloa,76.0,LK,1547353076.0,100.0,7.71,81.69,74.97,6.22
114,antalaha,24.0,MG,1547353076.0,98.0,-14.9,50.28,76.32,4.54
115,ornes,90.0,FR,1547352000.0,100.0,49.25,5.47,42.8,4.7
116,iqaluit,5.0,CA,1547348400.0,67.0,63.75,-68.52,-23.81,14.99
117,half moon bay,20.0,US,1547351760.0,61.0,37.46,-122.43,57.92,5.82
118,faya,0.0,SA,1547352000.0,76.0,18.39,42.45,53.6,6.93
119,keti bandar,0.0,PK,1547353079.0,100.0,24.14,67.45,65.61,13.33
120,joigny,92.0,FR,1547350200.0,93.0,47.98,3.4,46.4,14.99
121,provideniya,8.0,RU,1547353079.0,100.0,64.42,-173.23,-9.91,20.2
122,bethel,75.0,US,1547351760.0,82.0,60.79,-161.76,-2.03,19.46
123,melfi,40.0,IT,1547348100.0,79.0,41.0,15.66,28.4,17.22
124,balikpapan,56.0,ID,1547353081.0,100.0,-1.24,116.86,81.36,1.36
125,ilulissat,75.0,GL,1547351400.0,48.0,69.22,-51.1,-7.61,2.24
126,barrow,88.0,AR,1547353082.0,97.0,-38.31,-60.23,63.54,10.13
127,kavieng,48.0,PG,1547353082.0,100.0,-2.57,150.8,82.98,11.77
128,ahipara,68.0,NZ,1547353083.0,69.0,-35.17,173.16,73.35,10.36
129,tiksi,24.0,RU,1547353083.0,48.0,71.64,128.87,-29.44,3.83
130,khatanga,64.0,RU,1547353083.0,49.0,71.98,102.47,-29.53,7.11
131,herat,0.0,AF,1547351700.0,60.0,34.35,62.22,32.0,2.24
132,ahuimanu,1.0,US,1547351820.0,58.0,21.44,-157.84,78.08,5.82
133,powell,90.0,US,1547351700.0,92.0,40.16,-83.08,30.02,8.05
134,alofi,48.0,NU,1547352000.0,74.0,-19.06,-169.92,82.4,14.99
135,mantua,5.0,IT,1547351700.0,100.0,45.16,10.79,28.4,2.24
136,pangkalanbuun,20.0,ID,1547353171.0,90.0,-2.68,111.62,84.69,5.84
137,snezhnogorsk,75.0,RU,1547350200.0,92.0,69.19,33.23,17.6,2.24
138,henties bay,48.0,NA,1547353086.0,100.0,-22.12,14.28,59.4,0.25
139,touros,75.0,BR,1547352000.0,88.0,-5.2,-35.46,77.0,3.36
140,new norfolk,0.0,AU,1547350200.0,33.0,-42.78,147.06,71.6,16.11
141,carutapera,92.0,BR,1547353087.0,96.0,-1.2,-46.02,76.59,6.73
142,hobyo,88.0,SO,1547353088.0,79.0,5.35,48.53,76.41,18.14
143,san-pedro,12.0,CI,1547353088.0,96.0,4.75,-6.64,76.41,5.88
144,dzilam gonzalez,0.0,MX,1547353088.0,65.0,21.28,-88.93,70.29,5.99
145,kapaa,1.0,US,1547351760.0,70.0,22.08,-159.32,77.0,4.7
146,sola,75.0,NO,1547351400.0,87.0,58.89,5.65,44.6,13.87
147,santa cruz,1.0,US,1547352000.0,79.0,36.97,-122.03,55.94,6.93
148,new richmond,1.0,CA,1547348400.0,71.0,48.17,-65.87,6.8,12.75
149,leningradskiy,20.0,RU,1547353091.0,100.0,69.38,178.42,-17.65,8.63
150,tahe,48.0,CN,1547353092.0,64.0,52.34,124.71,-0.64,3.49
151,sinnamary,56.0,GF,1547353092.0,95.0,5.38,-52.96,78.57,10.36
152,wad rawah,0.0,SD,1547353092.0,75.0,15.16,33.13,60.84,3.87
153,rongcheng,0.0,CN,1547353092.0,64.0,37.16,122.42,43.29,4.72
154,sarandi,80.0,BR,1547353093.0,97.0,-27.94,-52.92,69.21,7.74
155,kaitangata,100.0,NZ,1547353093.0,100.0,-46.28,169.85,56.07,5.06
156,vao,12.0,EE,1547353093.0,86.0,59.1,26.19,14.85,4.5
157,whithorn,20.0,JM,1547352000.0,73.0,18.26,-78.04,77.0,1.12
158,portland,40.0,US,1547351580.0,55.0,45.52,-122.67,46.94,17.22
159,avera,90.0,US,1547351700.0,60.0,33.19,-82.53,51.8,6.93
160,saint anthony,20.0,US,1547351760.0,79.0,43.97,-111.68,8.96,5.82
161,tilichiki,0.0,RU,1547353095.0,67.0,60.47,166.1,-9.28,2.86
162,port blair,0.0,IN,1547353096.0,98.0,11.67,92.75,83.25,12.77
163,codrington,40.0,AU,1547348400.0,45.0,-28.95,153.24,89.6,12.75
164,allahganj,0.0,IN,1547353096.0,85.0,27.55,79.69,52.92,3.53
165,boddam,44.0,GB,1547351400.0,76.0,57.47,-1.78,51.8,19.46
166,saskylakh,0.0,RU,1547353097.0,0.0,71.97,114.09,-55.9,4.27
167,hambantota,90.0,LK,1547349000.0,94.0,6.12,81.12,77.0,8.05
168,mechanicsville,90.0,US,1547351760.0,88.0,37.62,-77.34,31.82,5.82
169,pijijiapan,80.0,MX,1547353098.0,92.0,15.69,-93.21,69.39,1.86
170,sao gabriel da cachoeira,32.0,BR,1547353098.0,88.0,-0.13,-67.09,76.86,2.71
171,sitka,20.0,US,1547353099.0,91.0,37.17,-99.65,28.26,9.31
172,tabas,0.0,IR,1547352000.0,45.0,33.6,56.92,32.0,2.24
173,mackay,75.0,CA,1547348400.0,86.0,53.65,-115.58,30.2,6.93
174,shelburne,1.0,CA,1547348400.0,100.0,44.08,-80.2,17.6,8.08
175,cavalcante,20.0,BR,1547353100.0,90.0,-13.79,-47.46,67.86,2.26
176,chokurdakh,80.0,RU,1547353101.0,37.0,70.62,147.9,-24.22,8.23
177,mangrol,0.0,IN,1547353101.0,80.0,25.33,76.51,52.47,2.82
178,tarakan,40.0,ID,1547350200.0,66.0,3.3,117.63,86.0,6.93
179,kuala pilah,75.0,MY,1547350200.0,62.0,2.74,102.25,87.8,3.36
180,forest grove,1.0,US,1547351760.0,88.0,45.52,-123.11,46.94,3.36
181,kinkala,48.0,CG,1547352000.0,88.0,-4.35,14.75,75.2,1.12
182,san carlos de bariloche,0.0,AR,1547352000.0,75.0,-41.13,-71.31,46.4,6.93
183,ampanihy,76.0,MG,1547353103.0,92.0,-24.69,44.75,71.46,3.04
184,tha rua,0.0,TH,1547353103.0,62.0,14.56,100.72,85.77,7.4
185,pevek,0.0,RU,1547353104.0,71.0,69.7,170.27,-23.68,4.72
186,sechura,0.0,PE,1547353104.0,78.0,-5.56,-80.82,74.34,12.82
187,kachiry,0.0,KZ,1547353104.0,37.0,53.07,76.1,-10.81,8.41
188,mago,0.0,RU,1547353105.0,57.0,53.27,140.15,2.79,2.75
189,belmonte,0.0,PT,1547353105.0,81.0,40.36,-7.35,28.17,5.88
190,kendari,12.0,ID,1547353106.0,78.0,-3.99,122.52,87.3,3.49
191,vagay,80.0,RU,1547353106.0,77.0,57.94,69.02,12.96,12.88
192,castro,0.0,CL,1547352000.0,100.0,-42.48,-73.76,41.0,4.7
193,sukumo,0.0,JP,1547353107.0,88.0,32.94,132.72,53.46,6.33
194,anadyr,0.0,RU,1547352000.0,68.0,64.73,177.51,-16.61,8.95
195,wabana,90.0,CA,1547348400.0,92.0,47.63,-52.95,26.6,12.75
196,samfya,56.0,ZM,1547353108.0,100.0,-11.37,29.56,65.88,7.85
197,bealanana,56.0,MG,1547353108.0,94.0,-14.54,48.75,62.64,2.48
198,colares,0.0,PT,1547350200.0,75.0,38.8,-9.45,44.6,6.93
199,narsaq,80.0,GL,1547351400.0,84.0,60.91,-46.05,32.0,10.29
200,grand gaube,40.0,MU,1547352000.0,70.0,-20.01,57.66,84.2,11.41
201,zottegem,75.0,BE,1547351700.0,93.0,50.87,3.81,48.2,12.75
202,shirdi,0.0,IN,1547353110.0,66.0,19.77,74.48,57.51,2.82
203,georgetown,20.0,GY,1547352000.0,100.0,6.8,-58.16,71.6,4.7
204,bella union,44.0,CO,1547353111.0,94.0,8.5,-73.35,61.83,1.97
205,sovetskiy,80.0,RU,1547353111.0,85.0,56.76,48.47,8.46,10.92
206,aksay,75.0,RU,1547352000.0,92.0,47.27,39.86,30.2,6.71
207,ternate,75.0,PH,1547352000.0,66.0,14.29,120.72,84.2,13.87
208,kruisfontein,0.0,ZA,1547353113.0,92.0,-34.0,24.73,60.66,6.89
209,paso de carrasco,0.0,UY,1547352000.0,83.0,-34.86,-56.05,69.8,10.29
210,pleasanton,1.0,US,1547351760.0,80.0,37.66,-121.87,59.0,4.7
211,muli,0.0,IN,1547353114.0,86.0,22.62,71.45,54.09,2.86
212,sumoto,20.0,JP,1547352000.0,53.0,34.35,134.9,51.8,6.93
213,guerrero negro,64.0,MX,1547353114.0,95.0,27.97,-114.04,57.42,4.05
214,porto novo,40.0,BR,1547352000.0,94.0,-23.68,-45.44,71.6,3.36
215,prince rupert,90.0,CA,1547349600.0,93.0,54.32,-130.32,44.6,3.36
216,vardo,90.0,US,1547352000.0,92.0,39.62,-77.74,30.2,4.99
217,charters towers,20.0,AU,1547353116.0,68.0,-20.07,146.27,85.95,9.91
218,lagoa,0.0,PT,1547350200.0,61.0,37.14,-8.45,46.4,6.93
219,toora-khem,0.0,RU,1547353116.0,66.0,52.47,96.11,-11.62,2.26
220,locri,40.0,IT,1547348100.0,53.0,38.24,16.26,50.0,6.93
221,vila velha,75.0,BR,1547352000.0,83.0,-3.71,-38.6,80.6,5.82
222,shimoda,20.0,JP,1547352000.0,53.0,34.7,138.93,51.8,16.11
223,chuzhou,24.0,CN,1547353118.0,87.0,32.25,118.33,44.64,4.5
224,mildura,0.0,AU,1547348400.0,16.0,-34.18,142.16,91.4,9.17
225,kodiak,90.0,US,1547351700.0,92.0,39.95,-94.76,32.0,13.87
226,san patricio,8.0,PY,1547353119.0,95.0,-26.98,-56.83,74.88,3.87
227,praia,64.0,BR,1547353119.0,96.0,-20.25,-43.81,63.99,3.53
228,naguabo,20.0,PR,1547351760.0,76.0,18.21,-65.73,75.92,10.29
229,tual,80.0,ID,1547353120.0,100.0,-5.67,132.75,83.16,13.78
230,mirganj,0.0,IN,1547353120.0,79.0,26.37,84.34,55.98,2.98
231,namtsy,8.0,RU,1547352000.0,57.0,62.72,129.66,-43.61,4.47
232,duiwelskloof,8.0,ZA,1547353121.0,84.0,-23.69,30.14,68.76,5.99
233,emilio carranza,100.0,MX,1547353122.0,97.0,19.97,-96.61,66.33,1.7
234,green valley,90.0,US,1547351760.0,88.0,40.41,-89.64,30.56,19.46
235,seoul,0.0,KR,1547352000.0,30.0,37.57,126.98,42.8,2.24
236,royan,90.0,FR,1547350200.0,93.0,45.62,-1.03,48.2,5.82
237,torquay,24.0,GB,1547353123.0,99.0,50.47,-3.52,49.14,20.2
238,maniitsoq,44.0,GL,1547353124.0,100.0,65.42,-52.9,6.84,5.84
239,sao jose da coroa grande,92.0,BR,1547353124.0,100.0,-8.9,-35.15,73.89,5.1
240,baruun-urt,20.0,MN,1547353124.0,71.0,46.68,113.28,6.57,10.13
241,roald,92.0,NO,1547351400.0,86.0,62.58,6.12,41.0,16.11
242,butaritari,56.0,KI,1547353125.0,100.0,3.07,172.79,82.98,7.56
243,nikolayevsk-na-amure,0.0,RU,1547353125.0,64.0,53.14,140.72,9.09,8.57
244,vaitape,76.0,PF,1547353126.0,100.0,-16.52,-151.75,81.54,23.73
245,dunedin,64.0,NZ,1547352981.0,94.0,-45.87,170.5,59.76,4.72
246,hasaki,20.0,JP,1547352000.0,37.0,35.73,140.83,50.0,12.75
247,fare,100.0,PF,1547353127.0,100.0,-16.7,-151.02,82.44,23.55
248,pokhara,0.0,NP,1547353127.0,52.0,28.21,83.99,45.18,3.6
249,clyde river,1.0,CA,1547352000.0,73.0,70.47,-68.59,-34.61,5.82
250,ketchikan,90.0,US,1547351760.0,92.0,55.34,-131.65,48.92,5.82
251,padang,20.0,ID,1547350200.0,74.0,-0.92,100.36,86.0,4.7
252,dingle,48.0,PH,1547353129.0,72.0,11.0,122.67,81.99,14.05
253,lata,92.0,IN,1547353130.0,100.0,30.78,78.62,32.04,1.59
254,ostrovnoy,64.0,RU,1547353131.0,90.0,68.05,39.51,20.34,10.76
255,chapais,90.0,CA,1547348400.0,77.0,49.78,-74.86,-2.21,6.93
256,airai,12.0,TL,1547353132.0,51.0,-8.93,125.41,87.93,1.97
257,hualmay,0.0,PE,1547353132.0,95.0,-11.1,-77.61,64.62,6.29
258,chuy,88.0,UY,1547353132.0,90.0,-33.69,-53.46,70.2,12.03
259,imeni poliny osipenko,64.0,RU,1547353133.0,73.0,52.42,136.49,-10.81,3.83
260,fort nelson,90.0,CA,1547348400.0,77.0,58.81,-122.69,1.4,6.93
261,illapel,36.0,CL,1547353133.0,99.0,-31.63,-71.17,54.99,3.2
262,fort abbas,56.0,PK,1547353005.0,96.0,29.19,72.85,51.39,4.83
263,sioux lookout,90.0,CA,1547348400.0,85.0,50.1,-91.92,17.6,6.93
264,lorengau,76.0,PG,1547353134.0,99.0,-2.02,147.27,83.43,13.44
265,maceio,40.0,BR,1547348400.0,88.0,-9.67,-35.74,73.4,4.7
266,mosquera,40.0,CO,1547352000.0,87.0,4.71,-74.23,51.8,4.7
267,kedrovyy,0.0,RU,1547352000.0,83.0,56.17,91.82,-14.81,2.24
268,dekar,0.0,BW,1547353136.0,52.0,-21.53,21.93,62.37,2.82
269,abha,0.0,SA,1547352000.0,76.0,18.22,42.5,53.6,6.93
270,kinsale,75.0,IE,1547352000.0,87.0,51.71,-8.52,46.4,17.22
271,san quintin,0.0,PH,1547353137.0,62.0,17.54,120.52,79.11,3.53
272,kolyshley,76.0,RU,1547353137.0,83.0,52.7,44.54,10.62,10.87
273,poddorye,68.0,RU,1547353138.0,97.0,57.47,31.12,20.52,7.9
274,hamilton,75.0,BM,1547351700.0,72.0,32.3,-64.78,60.8,6.93
275,lesnoy,68.0,RU,1547353139.0,82.0,59.78,52.13,14.22,5.55
276,aklavik,20.0,CA,1547348400.0,66.0,68.22,-135.01,-32.81,3.36
277,lambarene,92.0,GA,1547353140.0,100.0,-0.7,10.22,72.0,2.3
278,westport,92.0,IE,1547352935.0,95.0,53.8,-9.52,48.69,19.82
279,pataskala,90.0,US,1547351700.0,88.0,40.0,-82.67,30.2,4.7
280,talnakh,68.0,RU,1547353141.0,46.0,69.49,88.39,-28.99,14.05
281,aswan,24.0,EG,1547353141.0,95.0,24.09,32.9,47.07,2.75
282,cidreira,64.0,BR,1547353141.0,90.0,-30.17,-50.22,73.62,13.94
283,garden city,90.0,US,1547351760.0,53.0,40.73,-73.63,33.08,8.05
284,barcelona,0.0,ES,1547350200.0,100.0,41.38,2.18,39.2,14.99
285,constitucion,5.0,MX,1547347380.0,43.0,23.99,-104.67,55.4,9.17
286,inta,80.0,RU,1547353143.0,76.0,66.04,60.13,12.96,3.98
287,la ronge,75.0,CA,1547348400.0,79.0,55.1,-105.3,19.4,5.82
288,dwarka,40.0,IN,1547350200.0,82.0,28.58,77.04,57.2,3.36
289,svirstroy,44.0,RU,1547353145.0,88.0,60.8,33.72,21.69,7.34
290,petropavlovsk-kamchatskiy,76.0,RU,1547352000.0,50.0,53.05,158.65,30.2,2.24
291,te anau,32.0,NZ,1547353145.0,48.0,-45.41,167.72,61.74,7.34
292,nanortalik,92.0,GL,1547353146.0,94.0,60.14,-45.24,30.06,20.38
293,morgan city,1.0,US,1547351760.0,96.0,29.7,-91.21,57.92,9.17
294,vila franca do campo,75.0,PT,1547350200.0,72.0,37.72,-25.43,59.0,6.93
295,havelock,90.0,US,1547351880.0,95.0,34.88,-76.9,44.06,10.29
296,comodoro rivadavia,0.0,AR,1547352000.0,25.0,-45.87,-67.48,62.6,10.29
297,saint augustine,20.0,TT,1547352000.0,83.0,10.65,-61.4,73.4,10.13
298,morondava,76.0,MG,1547353148.0,100.0,-20.3,44.28,77.31,3.76
299,batagay,8.0,RU,1547353148.0,0.0,67.65,134.64,-55.27,2.82
300,taksimo,32.0,RU,1547353149.0,51.0,56.36,114.84,-19.63,0.51
301,anicuns,48.0,BR,1547353149.0,89.0,-16.46,-49.96,66.69,4.32
302,scarborough,92.0,GB,1547351400.0,81.0,54.28,-0.41,51.8,17.22
303,taoudenni,0.0,ML,1547353150.0,28.0,22.68,-3.98,45.72,13.6
304,nave,5.0,IT,1547351700.0,100.0,45.59,10.29,28.4,2.24
305,shitanjing,0.0,CN,1547353151.0,58.0,39.23,106.34,20.34,1.3
306,middleton,90.0,CA,1547348400.0,85.0,44.94,-65.07,14.0,9.17
307,kabin buri,44.0,TH,1547352999.0,45.0,13.95,101.72,89.28,5.1
308,haines junction,36.0,CA,1547353152.0,26.0,60.75,-137.51,-20.35,2.08
309,port macquarie,0.0,AU,1547348400.0,40.0,-31.43,152.91,86.0,14.99
310,tuy hoa,76.0,VN,1547352878.0,98.0,13.08,109.3,74.52,12.03
311,cherdyn,80.0,RU,1547353153.0,86.0,60.4,56.48,17.19,6.73
312,solano,0.0,PH,1547353153.0,64.0,16.52,121.18,73.8,3.27
313,longyearbyen,20.0,NO,1547351400.0,55.0,78.22,15.63,6.8,13.87
314,salta,75.0,AR,1547352000.0,88.0,-24.79,-65.41,66.2,3.36
315,ossora,0.0,RU,1547353154.0,90.0,59.24,163.07,3.78,4.99
316,moose factory,1.0,CA,1547348400.0,83.0,51.26,-80.61,-14.81,3.36
317,nizwa,64.0,OM,1547353155.0,74.0,22.93,57.53,54.9,2.37
318,tessalit,0.0,ML,1547353155.0,30.0,20.2,1.01,43.02,9.24
319,limbang,75.0,BN,1547350200.0,79.0,4.75,115.01,86.0,6.93
320,shenjiamen,24.0,CN,1547353156.0,100.0,29.96,122.3,47.07,15.05
321,graaff-reinet,0.0,ZA,1547353156.0,60.0,-32.25,24.53,58.41,4.54
322,parrita,0.0,CR,1547352000.0,60.0,9.52,-84.33,68.0,17.22
323,eureka,1.0,US,1547351700.0,100.0,40.8,-124.16,51.08,11.41
324,stromness,90.0,CA,1547351640.0,67.0,42.87,-79.55,23.0,9.17
325,bontang,8.0,ID,1547353158.0,90.0,0.12,117.47,84.78,8.52
326,magadan,36.0,RU,1547353159.0,100.0,59.56,150.8,10.44,6.73
327,waingapu,36.0,ID,1547353159.0,79.0,-9.65,120.26,86.04,4.72
328,saint-pierre,90.0,FR,1547350200.0,100.0,48.95,4.24,46.4,12.75
329,asadabad,75.0,IR,1547352000.0,79.0,34.78,48.12,24.8,5.21
330,kirakira,92.0,SB,1547353161.0,100.0,-10.46,161.92,80.28,16.96
331,pacific grove,1.0,US,1547352000.0,79.0,36.62,-121.92,55.04,6.93
332,kamyshin,8.0,RU,1547353161.0,85.0,50.08,45.4,18.27,9.13
333,kununurra,12.0,AU,1547350200.0,66.0,-15.77,128.74,89.6,4.7
334,esperance,20.0,TT,1547352000.0,83.0,10.24,-61.45,73.4,5.99
335,berea,90.0,US,1547351700.0,92.0,41.37,-81.85,26.96,10.29
336,khash,0.0,IR,1547353163.0,69.0,28.22,61.21,22.05,2.53
337,paravola,20.0,GR,1547351400.0,87.0,38.61,21.52,42.8,2.59
338,hermosillo,5.0,MX,1547350800.0,59.0,29.09,-110.96,60.8,4.7
339,nouadhibou,0.0,MR,1547353069.0,85.0,20.93,-17.03,58.68,6.29
340,jamame,0.0,SO,1547353164.0,87.0,0.07,42.75,76.95,12.03
341,juba,76.0,EE,1547351400.0,100.0,57.82,26.93,28.4,5.82
342,ngunguru,68.0,NZ,1547353165.0,90.0,-35.62,174.5,71.82,14.27
343,zhuanghe,0.0,CN,1547353166.0,100.0,39.7,122.97,31.86,4.27
344,ikalamavony,48.0,MG,1547353166.0,95.0,-21.17,46.6,62.01,2.82
345,yakeshi,64.0,CN,1547353166.0,79.0,49.28,120.73,5.22,6.78
346,mudon,24.0,MM,1547353167.0,75.0,16.26,97.73,82.98,3.38
347,evensk,0.0,RU,1547353167.0,100.0,61.92,159.24,2.97,6.78
348,esso,0.0,RU,1547353167.0,89.0,55.93,158.7,11.61,1.3
349,neryungri,24.0,RU,1547353168.0,41.0,56.66,124.71,-15.13,2.98
350,saint-francois,92.0,FR,1547350200.0,93.0,46.42,3.91,42.8,10.29
351,ordzhonikidze,0.0,UA,1547353168.0,100.0,44.96,35.36,32.58,9.64
352,toamasina,20.0,MG,1547352000.0,83.0,-18.17,49.38,82.4,2.24
353,ruteng,24.0,ID,1547353169.0,85.0,-8.61,120.46,82.17,4.5
354,rabak,0.0,SD,1547353169.0,51.0,13.18,32.74,67.14,8.86
355,cabedelo,0.0,BR,1547352000.0,94.0,-6.97,-34.84,75.2,6.93
356,baykit,0.0,RU,1547353170.0,0.0,61.68,96.39,-35.47,3.04
357,honiara,92.0,SB,1547353171.0,90.0,-9.43,159.96,80.28,2.86
358,upata,20.0,VE,1547353171.0,74.0,8.02,-62.41,73.08,7.9
359,tazovskiy,88.0,RU,1547353171.0,70.0,67.47,78.7,-5.5,20.94
360,port hardy,90.0,CA,1547348400.0,87.0,50.7,-127.42,46.4,19.46
361,echirolles,90.0,FR,1547350200.0,93.0,45.14,5.73,37.4,3.36
362,matara,92.0,PE,1547353172.0,95.0,-13.74,-72.9,45.27,1.74
363,lichinga,92.0,MZ,1547353173.0,96.0,-13.3,35.25,68.22,5.5
364,hay river,90.0,CA,1547348400.0,83.0,60.82,-115.79,-5.81,10.29
365,meulaboh,56.0,ID,1547353159.0,100.0,4.14,96.13,79.56,4.5
366,huron,90.0,US,1547352900.0,91.0,44.36,-98.21,23.0,4.7
367,sorong,12.0,ID,1547353174.0,100.0,-0.86,131.25,82.53,7.85
368,bilibino,20.0,RU,1547353174.0,0.0,68.06,166.44,-27.37,2.3
369,bathsheba,0.0,BB,1547352000.0,73.0,13.22,-59.52,75.2,9.17
370,foxton,88.0,NZ,1547353175.0,83.0,-40.47,175.29,69.66,15.05
371,namie,40.0,JP,1547352000.0,48.0,37.52,140.86,41.0,6.93
372,bambanglipuro,8.0,ID,1547353177.0,86.0,-7.95,110.28,83.34,4.27
373,itaqui,0.0,BR,1547353177.0,95.0,-29.13,-56.55,72.0,9.08
374,bonavista,76.0,CA,1547353177.0,100.0,48.65,-53.11,25.38,10.36
375,vung tau,12.0,VN,1547353178.0,88.0,10.35,107.08,81.63,19.71
376,qostanay,90.0,KZ,1547352000.0,92.0,53.17,63.58,17.6,24.61
377,laredo,1.0,US,1547351760.0,63.0,27.51,-99.51,57.74,6.51
378,doka,0.0,SD,1547353179.0,58.0,13.52,35.76,65.34,3.31
379,awjilah,20.0,LY,1547353179.0,76.0,29.14,21.3,49.41,19.08
380,sarankhola,0.0,BD,1547353180.0,70.0,22.31,89.79,68.67,4.76
381,whitecourt,75.0,CA,1547348400.0,86.0,54.14,-115.68,30.2,6.93
382,tabuk,20.0,PH,1547353181.0,64.0,17.41,121.44,74.34,2.37
383,kuopio,0.0,FI,1547351400.0,85.0,62.89,27.68,17.6,12.75
384,frunze,68.0,UA,1547353181.0,69.0,46.83,29.88,7.38,4.38
385,little current,1.0,CA,1547348400.0,65.0,45.98,-81.93,3.2,4.7
386,steamboat springs,90.0,US,1547351760.0,97.0,40.48,-106.83,21.92,2.08
387,rabo de peixe,75.0,PT,1547350200.0,72.0,37.8,-25.58,59.0,6.93
388,ust-kuyga,36.0,RU,1547353183.0,0.0,70.0,135.55,-36.1,2.86
389,beringovskiy,32.0,RU,1547353183.0,92.0,63.05,179.32,-7.39,26.42
390,tarare,90.0,FR,1547350200.0,93.0,45.89,4.44,42.8,3.36
391,grenaa,68.0,DK,1547351400.0,100.0,56.42,10.88,42.8,9.17
392,iraucuba,64.0,BR,1547353184.0,96.0,-3.75,-39.78,69.48,1.97
393,mount gambier,0.0,AU,1547348400.0,42.0,-37.83,140.78,80.6,18.34
394,camacha,75.0,PT,1547350200.0,59.0,33.08,-16.33,64.4,17.22
395,ormara,48.0,PK,1547353185.0,93.0,25.21,64.64,63.81,9.64
396,senneterre,90.0,CA,1547348400.0,91.0,48.39,-77.24,-2.21,4.7
397,victoria,75.0,BN,1547350200.0,74.0,5.28,115.24,86.0,4.7
398,christchurch,92.0,NZ,1547352000.0,52.0,-43.53,172.64,68.0,4.7
399,kieta,80.0,PG,1547353187.0,89.0,-6.22,155.63,84.51,3.76
400,falmouth,92.0,GB,1547347800.0,100.0,50.16,-5.07,48.2,11.41
401,yumen,24.0,CN,1547353187.0,70.0,40.29,97.04,5.49,10.25
402,xinqing,76.0,CN,1547353188.0,74.0,48.28,129.53,7.2,3.2
403,pisco,0.0,PE,1547352000.0,88.0,-13.71,-76.2,71.6,10.29
404,husavik,80.0,CA,1547353189.0,93.0,50.56,-96.99,18.63,10.65
405,pangnirtung,8.0,CA,1547353189.0,58.0,66.15,-65.72,-32.86,3.04
406,armidale,0.0,AU,1547353189.0,59.0,-30.51,151.67,81.09,8.3
407,nabire,48.0,ID,1547353190.0,92.0,-3.36,135.5,77.4,2.59
408,denia,0.0,ES,1547353190.0,100.0,38.84,0.11,50.49,9.24
409,sirohi,8.0,IN,1547353190.0,82.0,24.89,72.86,51.21,3.87
410,leeuwarden,75.0,NL,1547352060.0,100.0,53.2,5.79,46.4,17.22
411,santiago,0.0,CL,1547352000.0,63.0,-33.44,-70.65,62.6,9.17
412,binzhou,0.0,CN,1547353192.0,54.0,37.38,117.96,41.85,7.07
413,plainfield,90.0,US,1547352000.0,95.0,39.7,-86.4,32.0,11.41
414,ferrol,0.0,ES,1547350200.0,76.0,43.48,-8.23,48.2,4.7
415,dawson,90.0,US,1547351700.0,92.0,39.85,-89.46,31.1,13.87
416,yulara,0.0,AU,1547348400.0,8.0,-25.24,130.99,109.4,13.87
417,zyryanka,8.0,RU,1547353193.0,0.0,65.73,150.89,-37.99,2.82
418,samarai,24.0,PG,1547353194.0,100.0,-10.62,150.67,82.71,14.05
419,kudahuvadhoo,88.0,MV,1547353194.0,100.0,2.67,72.89,81.99,11.25
420,makakilo city,75.0,US,1547351820.0,71.0,21.35,-158.09,78.08,6.93
421,omboue,92.0,GA,1547353194.0,100.0,-1.57,9.26,75.24,8.86
422,never,56.0,RU,1547353195.0,71.0,53.98,124.16,-6.85,3.53
423,zhanaozen,92.0,KZ,1547353195.0,88.0,43.35,52.85,34.47,6.89
424,keelung,75.0,TW,1547352000.0,77.0,25.13,121.74,69.8,12.75
425,mumford,24.0,GH,1547353196.0,92.0,5.26,-0.76,77.58,4.54
426,mandera,0.0,ET,1547353196.0,67.0,3.94,41.86,64.26,5.39
427,nitchidorf,75.0,RO,1547352000.0,92.0,45.58,21.53,32.0,2.24
428,prado,48.0,BR,1547353197.0,91.0,-17.34,-39.22,81.0,11.1
429,nola,8.0,CF,1547353197.0,93.0,3.52,16.05,71.19,2.48
430,uyuni,8.0,BO,1547353198.0,90.0,-20.46,-66.82,39.51,3.31
431,cayenne,20.0,GF,1547352000.0,88.0,4.94,-52.33,73.4,7.56
432,freeport,92.0,BS,1547353199.0,99.0,26.54,-78.7,75.78,9.91
433,luderitz,12.0,NA,1547353199.0,90.0,-26.65,15.16,59.85,4.76
434,ciudad bolivar,32.0,VE,1547353090.0,60.0,8.12,-63.55,80.73,14.27
435,zhuhai,0.0,CN,1547348400.0,44.0,40.71,112.04,21.2,4.05
436,valleyview,68.0,CA,1547353200.0,73.0,55.07,-117.28,25.11,2.86
437,marawi,88.0,PH,1547353201.0,70.0,8.0,124.29,79.11,3.38
438,sistranda,75.0,NO,1547351400.0,100.0,63.73,8.83,33.8,13.87
439,san juan,0.0,AR,1547353203.0,71.0,-31.54,-68.53,64.08,11.14
440,narragansett,1.0,US,1547351760.0,43.0,41.45,-71.45,28.04,6.93
441,grand-santi,76.0,GF,1547353203.0,99.0,4.27,-54.38,71.91,2.3
442,olenino,80.0,RU,1547353204.0,89.0,56.21,33.48,21.87,6.51
443,rio gallegos,0.0,AR,1547352000.0,57.0,-51.62,-69.22,48.2,21.92
444,carbonear,90.0,CA,1547348400.0,92.0,47.73,-53.24,26.6,12.75
445,altamont,68.0,CA,1547351700.0,100.0,49.4,-98.5,21.2,5.82
446,ust-maya,48.0,RU,1547353205.0,44.0,60.42,134.54,-27.91,3.38
447,dzhebariki-khaya,12.0,RU,1547353205.0,0.0,62.22,135.8,-41.59,2.82
448,alekseyevka,75.0,RU,1547352000.0,85.0,53.25,50.49,19.4,13.42
449,jiexiu,0.0,CN,1547353206.0,37.0,37.02,111.92,27.81,1.25
450,saint-augustin,90.0,FR,1547350200.0,93.0,44.83,-0.61,50.0,8.05
451,nuevo progreso,1.0,US,1547351700.0,84.0,26.05,-97.95,64.94,5.82
452,san lazaro,40.0,BZ,1547350860.0,73.0,18.04,-88.66,73.4,5.06
453,morehead,90.0,US,1547351700.0,93.0,38.18,-83.43,35.96,5.82
454,chifeng,0.0,CN,1547353208.0,34.0,42.27,118.96,24.03,3.83
455,bubaque,8.0,GW,1547353208.0,100.0,11.28,-15.83,77.49,11.25
456,caconda,24.0,AO,1547353209.0,63.0,-13.73,15.06,61.74,7.4
457,lakatoro,56.0,VU,1547353209.0,80.0,-16.11,167.42,85.32,0.85
458,salisbury,90.0,GB,1547351760.0,82.0,51.07,-1.8,50.0,14.99
459,alenquer,0.0,BR,1547352000.0,100.0,-1.95,-54.74,75.2,2.24
460,meadow lake,12.0,CA,1547353131.0,73.0,54.13,-108.44,7.29,2.75
461,aksu,0.0,KZ,1547352000.0,83.0,52.04,76.93,-5.81,6.71
462,tigil,0.0,RU,1547353211.0,71.0,57.8,158.67,6.75,3.49
463,arlit,0.0,NE,1547353211.0,53.0,18.74,7.39,50.04,8.41
464,swellendam,0.0,ZA,1547352000.0,63.0,-34.02,20.44,64.4,10.29
465,jalu,0.0,LY,1547353212.0,64.0,29.03,21.55,47.43,17.4
466,otofuke,20.0,JP,1547352000.0,62.0,43.02,143.2,19.4,4.7
467,iquique,0.0,CL,1547352000.0,64.0,-20.22,-70.14,71.6,3.36
468,quatre cocos,40.0,MU,1547352000.0,70.0,-20.21,57.76,84.2,11.41
469,litovko,36.0,RU,1547353213.0,68.0,49.24,135.18,2.25,3.38
470,puerto baquerizo moreno,64.0,EC,1547353160.0,98.0,-0.9,-89.6,76.86,9.42
471,port lincoln,0.0,AU,1547353214.0,69.0,-34.72,135.86,73.98,14.61
472,margate,0.0,AU,1547350200.0,33.0,-43.03,147.26,71.6,16.11
473,ippy,12.0,CF,1547353215.0,87.0,6.26,21.2,66.51,2.82
474,dryden,90.0,CA,1547348400.0,85.0,49.79,-92.84,17.6,12.75
475,trinidad,0.0,UY,1547353216.0,84.0,-33.52,-56.9,66.51,9.35
476,phalaborwa,0.0,ZA,1547352000.0,83.0,-23.95,31.14,73.4,4.7
477,gorontalo,12.0,ID,1547353216.0,65.0,0.54,123.06,86.85,2.19
478,calabaca,88.0,PH,1547353217.0,94.0,14.3,122.43,79.47,20.15
479,ylivieska,8.0,FI,1547353217.0,83.0,64.07,24.53,16.92,3.49
480,fernley,1.0,US,1547351700.0,61.0,39.61,-119.25,37.04,2.3
481,taybad,20.0,IR,1547353218.0,100.0,34.74,60.78,25.29,3.38
482,rafai,12.0,CF,1547353218.0,83.0,4.95,23.92,66.78,2.59
483,langxiang,0.0,CN,1547353218.0,63.0,46.95,128.87,10.71,2.59
484,cherskiy,44.0,RU,1547353211.0,52.0,68.75,161.3,-17.65,1.81
485,lovozero,64.0,RU,1547353219.0,92.0,68.01,35.02,17.19,2.48
486,nuuk,75.0,GL,1547351400.0,86.0,64.17,-51.74,26.6,8.05
487,shingu,20.0,JP,1547352000.0,100.0,33.72,135.99,55.4,13.87
488,havoysund,56.0,NO,1547351400.0,92.0,71.0,24.66,28.4,11.41
489,bay roberts,90.0,CA,1547348400.0,92.0,47.58,-53.28,26.6,12.75
490,ishinomaki,75.0,JP,1547352000.0,48.0,38.42,141.3,41.0,2.24
491,madang,88.0,PG,1547353221.0,96.0,-5.21,145.81,81.0,3.76
492,veraval,90.0,FR,1547350200.0,93.0,49.65,0.71,50.0,13.87
493,saldanha,0.0,PT,1547353222.0,79.0,41.42,-6.55,18.81,3.09
494,sala,20.0,SE,1547351400.0,92.0,59.92,16.61,24.8,5.28
495,gamba,0.0,CN,1547353223.0,45.0,28.28,88.52,3.51,5.84
496,kargil,68.0,PK,1547353223.0,75.0,34.56,76.13,-1.09,0.85
497,qaqortoq,92.0,GL,1547351400.0,96.0,60.72,-46.03,32.0,10.29
498,nipawin,1.0,CA,1547352000.0,84.0,53.36,-104.02,8.6,6.93
499,oktyabrskiy,90.0,RU,1547352000.0,85.0,55.61,37.97,17.6,6.71
500,eyl,92.0,SO,1547353225.0,94.0,7.98,49.82,74.25,18.7
501,caracuaro,20.0,MX,1547353225.0,89.0,19.01,-101.13,55.89,1.74
502,zabaykalsk,20.0,CN,1547353193.0,62.0,49.64,117.33,-0.82,4.32
503,santa teresa,20.0,VE,1547352000.0,88.0,10.26,-66.69,71.6,2.3
504,jardim,0.0,BR,1547353227.0,82.0,-21.48,-56.15,75.24,3.09
505,najran,0.0,SA,1547352000.0,49.0,17.54,44.22,48.2,2.48
506,vanavara,12.0,RU,1547353227.0,33.0,60.35,102.28,-23.05,5.39
507,reconquista,80.0,AR,1547353228.0,93.0,-29.14,-59.64,74.7,9.53
508,calatayud,0.0,ES,1547350200.0,74.0,41.35,-1.64,46.4,3.36
509,ambilobe,44.0,MG,1547353229.0,92.0,-13.19,49.05,68.31,3.09
510,poum,40.0,MK,1547352000.0,84.0,41.28,20.71,8.6,5.82
511,palmeira,56.0,BR,1547353229.0,95.0,-25.43,-50.0,67.41,4.72
512,neyshabur,20.0,IR,1547353230.0,67.0,36.21,58.79,19.17,1.07
513,naze,12.0,NG,1547353230.0,88.0,5.43,7.07,72.0,6.62
514,zhigansk,32.0,RU,1547353230.0,54.0,66.77,123.37,-18.46,10.13
515,huilong,92.0,CN,1547353231.0,96.0,28.89,110.18,38.16,3.09
516,russell,75.0,AR,1547352000.0,77.0,-33.01,-68.8,68.0,9.17
517,aviles,24.0,ES,1547350200.0,81.0,43.55,-5.92,44.6,6.93
518,san jose,0.0,PH,1547353076.0,69.0,15.79,120.99,81.0,3.2
519,ohara,40.0,JP,1547352000.0,43.0,35.12,135.83,51.8,8.05
520,kalmunai,88.0,LK,1547353233.0,100.0,7.42,81.82,73.89,5.77
521,gizo,0.0,IL,1547351400.0,54.0,31.8,34.94,57.2,8.05
522,kahului,40.0,US,1547351760.0,71.0,20.89,-156.47,77.0,9.17
523,trincomalee,92.0,LK,1547353234.0,100.0,8.58,81.23,75.15,6.4
524,mareeba,75.0,AU,1547352000.0,66.0,-16.99,145.42,84.2,11.41
525,pimentel,92.0,BR,1547353235.0,100.0,-3.7,-45.5,71.46,2.71
526,santo antonio do leverger,0.0,BR,1547352000.0,83.0,-15.87,-56.08,77.0,6.93
527,kalundborg,92.0,DK,1547351400.0,93.0,55.68,11.1,39.2,6.93
528,denpasar,20.0,ID,1547352000.0,84.0,-8.65,115.22,86.0,8.05
529,chilca,90.0,PE,1547352000.0,81.0,-13.22,-72.34,50.0,1.74
530,northam,92.0,GB,1547347800.0,93.0,51.04,-4.21,48.2,20.8
531,amboasary,40.0,MG,1547352000.0,88.0,-25.04,46.38,78.8,9.17
1,tuktoyaktuk,5.0,CA,1547355600.0,66.0,69.44,-133.03,-32.81,4.7
2,busselton,0.0,AU,1547357992.0,80.0,-33.64,115.35,74.9,17.0
3,lewistown,90.0,US,1547356500.0,96.0,40.39,-90.15,29.66,16.11
4,hermanus,12.0,ZA,1547357992.0,74.0,-34.42,19.24,63.2,9.95
5,lebu,0.0,ET,1547355600.0,34.0,8.96,38.73,51.8,2.24
6,baker city,1.0,US,1547355180.0,84.0,44.77,-117.83,24.98,3.36
7,sorong,20.0,ID,1547357994.0,100.0,-0.86,131.25,83.63,9.4
8,georgetown,20.0,GY,1547355600.0,100.0,6.8,-58.16,71.6,4.7
9,hobart,0.0,AU,1547355600.0,40.0,-42.88,147.33,71.6,18.34
10,albany,75.0,US,1547356620.0,53.0,42.65,-73.75,15.98,5.82
11,taoudenni,0.0,ML,1547357995.0,38.0,22.68,-3.98,41.6,12.46
12,rikitea,80.0,PF,1547357996.0,99.0,-23.12,-134.97,79.49,15.21
13,ushuaia,40.0,AR,1547355600.0,70.0,-54.81,-68.31,44.6,33.33
14,orgtrud,88.0,RU,1547357997.0,86.0,56.18,40.61,17.39,9.44
15,morant bay,20.0,JM,1547355600.0,65.0,17.88,-76.41,77.0,5.82
16,lulea,64.0,SE,1547355000.0,92.0,65.58,22.15,10.4,6.87
17,turukhansk,76.0,RU,1547357883.0,51.0,65.8,87.96,-17.35,21.74
18,barrow,92.0,AR,1547357998.0,97.0,-38.31,-60.23,63.65,5.59
19,torbay,75.0,CA,1547355600.0,85.0,47.66,-52.73,23.0,12.75
20,lompoc,1.0,US,1547356500.0,92.0,34.64,-120.46,51.98,4.7
21,poum,40.0,MK,1547357400.0,84.0,41.28,20.71,8.6,5.82
22,tezu,0.0,IN,1547357977.0,40.0,27.93,96.16,63.65,1.9
23,bitung,40.0,ID,1547355600.0,66.0,1.44,125.19,86.0,6.93
24,kapaa,1.0,US,1547356020.0,78.0,22.08,-159.32,77.0,5.53
25,fangshan,0.0,CN,1547355600.0,13.0,39.75,116.14,44.6,8.95
26,kodiak,90.0,US,1547355300.0,92.0,39.95,-94.76,32.0,13.87
27,hilo,75.0,US,1547355180.0,81.0,19.71,-155.08,71.06,5.82
28,rundu,20.0,NA,1547358001.0,22.0,-17.91,19.77,74.0,8.95
29,livadi,20.0,GR,1547355000.0,100.0,40.13,22.16,26.6,3.06
30,termoli,68.0,IT,1547358002.0,91.0,42.0,14.99,39.35,6.64
31,mount gambier,0.0,AU,1547355600.0,47.0,-37.83,140.78,77.0,18.34
32,mataura,88.0,NZ,1547358003.0,91.0,-46.19,168.86,55.37,4.63
33,batagay,0.0,RU,1547358003.0,0.0,67.65,134.64,-55.78,2.73
34,pangnirtung,12.0,CA,1547358003.0,60.0,66.15,-65.72,-33.55,4.03
35,ochamchira,92.0,GE,1547358004.0,100.0,42.71,41.47,47.9,6.64
36,nikolskoye,20.0,RU,1547355600.0,85.0,59.7,30.79,23.0,8.95
37,toccoa,90.0,US,1547356500.0,97.0,34.58,-83.33,34.7,10.29
38,macuelizo,36.0,NI,1547358005.0,91.0,13.65,-86.61,63.65,3.58
39,axim,24.0,GH,1547358005.0,97.0,4.87,-2.24,83.99,7.76
40,te anau,80.0,NZ,1547358006.0,54.0,-45.41,167.72,57.26,5.75
41,avarua,40.0,CK,1547355600.0,78.0,-21.21,-159.78,80.6,8.05
42,chuy,64.0,UY,1547358007.0,96.0,-33.69,-53.46,68.87,10.63
43,kahului,90.0,US,1547355360.0,76.0,20.89,-156.47,73.94,4.14
44,iqaluit,5.0,CA,1547355600.0,61.0,63.75,-68.52,-20.21,14.99
45,soyo,48.0,AO,1547358008.0,94.0,-6.13,12.37,76.25,1.28
46,duliagaon,0.0,IN,1547355600.0,56.0,27.37,95.32,69.8,9.17
47,umm lajj,100.0,SA,1547358009.0,97.0,25.02,37.27,72.29,10.45
48,bambous virieux,40.0,MU,1547355600.0,66.0,-20.34,57.76,84.2,11.41
49,dikson,64.0,RU,1547358009.0,100.0,73.51,80.55,-12.04,31.43
50,singaraja,68.0,ID,1547358010.0,95.0,-8.11,115.08,79.13,0.89
51,thompson,90.0,CA,1547355600.0,85.0,55.74,-97.86,14.0,5.82
52,isangel,80.0,VU,1547358011.0,100.0,-19.55,169.27,79.94,6.82
53,codrington,0.0,AU,1547355600.0,45.0,-28.95,153.24,87.8,12.75
54,baita de sub codru,92.0,RO,1547355600.0,100.0,47.53,23.15,28.4,6.93
55,bang krathum,0.0,TH,1547355600.0,52.0,16.58,100.3,89.6,2.24
56,lorengau,88.0,PG,1547358012.0,99.0,-2.02,147.27,83.45,14.47
57,burnie,0.0,AU,1547358013.0,96.0,-41.05,145.91,65.27,10.85
58,port shepstone,0.0,ZA,1547358013.0,85.0,-30.74,30.45,75.89,14.2
59,atuona,48.0,PF,1547358013.0,100.0,-9.8,-139.03,81.11,15.7
60,jamestown,0.0,AU,1547358014.0,24.0,-33.21,138.6,92.99,6.64
61,norman wells,40.0,CA,1547355600.0,73.0,65.28,-126.83,-34.61,4.7
62,qaanaaq,0.0,GL,1547358014.0,100.0,77.48,-69.36,-24.64,9.89
63,kita,20.0,JP,1547355600.0,39.0,35.76,139.74,50.0,8.05
64,kruisfontein,0.0,ZA,1547358015.0,81.0,-34.0,24.73,67.52,5.53
65,hasaki,20.0,JP,1547355600.0,43.0,35.73,140.83,50.0,11.41
66,ushtobe,32.0,KZ,1547358016.0,73.0,45.25,77.98,22.07,3.62
67,leningradskiy,20.0,RU,1547358016.0,100.0,69.38,178.42,-18.07,8.43
68,margate,0.0,AU,1547355600.0,40.0,-43.03,147.26,71.6,18.34
69,cross lanes,92.0,GB,1547355000.0,93.0,50.05,-5.22,48.2,26.4
70,si satchanalai,20.0,TH,1547355600.0,62.0,17.52,99.76,87.8,4.7
71,tahe,36.0,CN,1547358018.0,61.0,52.34,124.71,3.62,3.51
72,cidreira,24.0,BR,1547358018.0,92.0,-30.17,-50.22,72.92,10.96
73,the valley,20.0,AI,1547355600.0,83.0,18.22,-63.06,75.2,6.93
74,ahuimanu,1.0,US,1547355780.0,86.0,21.44,-157.84,78.08,4.7
75,upernavik,32.0,GL,1547358020.0,100.0,72.79,-56.15,-6.55,8.77
76,mar del plata,0.0,AR,1547358020.0,59.0,-46.43,-67.52,51.86,8.05
77,castro,0.0,CL,1547355600.0,100.0,-42.48,-73.76,42.8,6.93
78,yellowknife,5.0,CA,1547355600.0,75.0,62.45,-114.38,-18.41,10.29
79,hualmay,20.0,PE,1547358021.0,94.0,-11.1,-77.61,62.03,1.9
80,quatre cocos,40.0,MU,1547355600.0,66.0,-20.21,57.76,84.2,11.41
81,jenison,90.0,US,1547356500.0,68.0,42.91,-85.79,28.04,16.11
82,bluff,0.0,AU,1547358022.0,34.0,-23.58,149.07,94.43,12.3
83,airai,32.0,TL,1547358023.0,64.0,-8.93,125.41,83.09,2.13
84,grand-santi,44.0,GF,1547358023.0,100.0,4.27,-54.38,71.57,2.24
85,montbrison,92.0,FR,1547355600.0,93.0,45.61,4.07,39.2,5.82
86,solnechnyy,64.0,RU,1547358024.0,78.0,50.72,136.64,-3.94,3.06
87,arraial do cabo,12.0,BR,1547358025.0,93.0,-22.97,-42.02,75.62,11.18
88,punta arenas,75.0,CL,1547355600.0,65.0,-53.16,-70.91,46.4,27.51
89,semey,0.0,KZ,1547355600.0,77.0,50.41,80.25,1.4,6.71
90,taksimo,36.0,RU,1547357811.0,70.0,56.36,114.84,-12.49,1.34
91,cape town,40.0,ZA,1547355600.0,88.0,-33.93,18.42,64.4,10.29
92,hoima,12.0,UG,1547358026.0,77.0,1.43,31.35,70.13,4.07
93,lola,24.0,GN,1547358027.0,78.0,7.8,-8.53,64.73,2.57
94,klaksvik,92.0,FO,1547356800.0,93.0,62.23,-6.59,39.2,11.41
95,mbandaka,20.0,CD,1547358027.0,95.0,0.05,18.26,75.71,4.52
96,grand gaube,40.0,MU,1547355600.0,66.0,-20.01,57.66,84.2,11.41
97,sabang,92.0,PH,1547358028.0,90.0,13.72,123.58,78.5,14.14
98,butaritari,44.0,KI,1547358029.0,100.0,3.07,172.79,83.63,10.33
99,cravo norte,56.0,CO,1547358029.0,46.0,6.3,-70.2,86.15,10.63
100,cherskiy,32.0,RU,1547358030.0,60.0,68.75,161.3,-20.5,1.5
101,ponta do sol,92.0,BR,1547358030.0,99.0,-20.63,-46.0,63.2,1.05
102,bo phloi,0.0,TH,1547358030.0,48.0,14.32,99.52,91.37,9.28
103,orocue,44.0,CO,1547358031.0,51.0,4.79,-71.34,84.08,13.35
104,faanui,80.0,PF,1547358031.0,100.0,-16.48,-151.75,83.54,20.62
105,mahebourg,40.0,MU,1547355600.0,66.0,-20.41,57.7,84.2,11.41
106,bathsheba,20.0,BB,1547355600.0,73.0,13.22,-59.52,75.2,8.05
107,port alfred,0.0,ZA,1547358032.0,84.0,-33.59,26.89,69.32,8.55
108,puerto ayora,36.0,EC,1547358033.0,100.0,-0.74,-90.35,75.53,7.31
109,russkaya polyana,20.0,RU,1547358033.0,80.0,53.78,73.88,4.34,12.64
110,chaman,0.0,AF,1547358033.0,47.0,30.92,66.46,39.26,3.74
111,guerrero negro,88.0,MX,1547358034.0,100.0,27.97,-114.04,56.0,4.74
112,rudnichnyy,80.0,RU,1547358034.0,83.0,59.7,60.29,16.58,5.64
113,cukai,75.0,MY,1547355600.0,79.0,4.25,103.42,87.8,9.17
114,biak,12.0,ID,1547358034.0,79.0,-0.91,122.88,87.05,2.51
115,samarai,36.0,PG,1547358035.0,100.0,-10.62,150.67,82.55,15.1
116,ananas,48.0,HT,1547358035.0,97.0,19.25,-71.96,65.72,2.57
117,port elizabeth,90.0,US,1547356860.0,92.0,39.31,-74.98,26.96,3.51
118,baykit,0.0,RU,1547358036.0,48.0,61.68,96.39,-30.4,3.29
119,saint-philippe,1.0,CA,1547355600.0,77.0,45.36,-73.48,1.4,3.36
120,kaa-khem,0.0,RU,1547358037.0,80.0,51.7,94.56,-6.28,4.14
121,vestmannaeyjar,36.0,IS,1547358037.0,100.0,63.44,-20.27,32.24,8.95
122,collingwood,1.0,CA,1547355600.0,100.0,44.5,-80.22,-7.61,5.14
123,kavieng,76.0,PG,1547358038.0,100.0,-2.57,150.8,82.19,11.86
124,kapuskasing,5.0,CA,1547355600.0,75.0,49.42,-82.43,-18.41,3.36
125,grindavik,20.0,IS,1547355600.0,100.0,63.84,-22.43,33.8,13.87
126,estevan,1.0,CA,1547356500.0,84.0,49.14,-102.99,15.8,4.7
127,skjervoy,64.0,NO,1547358039.0,100.0,70.03,20.97,32.24,12.97
128,faya,0.0,SA,1547355600.0,58.0,18.39,42.45,57.2,6.93
129,dingle,20.0,PH,1547358040.0,68.0,11.0,122.67,84.17,14.43
130,cowra,36.0,AU,1547358040.0,76.0,-33.84,148.69,83.9,2.13
131,opuwo,0.0,NA,1547358041.0,48.0,-18.06,13.84,58.16,2.51
132,subiaco,0.0,AU,1547355600.0,47.0,-31.95,115.83,82.4,17.22
133,zyryanka,24.0,RU,1547358041.0,74.0,65.73,150.89,-37.15,3.58
134,carnarvon,56.0,ZA,1547358042.0,86.0,-30.97,22.13,56.72,7.83
135,mount pleasant,75.0,US,1547356500.0,74.0,33.16,-94.97,42.44,9.17
136,uvalde,1.0,US,1547355300.0,82.0,29.21,-99.79,44.96,4.7
137,cabo san lucas,5.0,MX,1547354400.0,72.0,22.89,-109.91,64.4,3.36
138,tura,0.0,IN,1547358044.0,64.0,25.52,90.21,70.58,4.74
139,kendari,8.0,ID,1547358044.0,100.0,-3.99,122.52,80.12,3.85
140,eyl,92.0,SO,1547358045.0,88.0,7.98,49.82,76.52,19.73
141,severo-yeniseyskiy,0.0,RU,1547358045.0,61.0,60.37,93.04,-21.4,3.36
142,taicheng,76.0,CN,1547358045.0,79.0,22.25,112.8,71.21,5.41
143,harrison,90.0,US,1547356560.0,96.0,39.26,-84.82,33.98,9.17
144,saskylakh,0.0,RU,1547358046.0,0.0,71.97,114.09,-56.68,4.59
145,beloha,64.0,MG,1547358047.0,97.0,-25.17,45.06,82.1,4.63
146,saint anthony,75.0,US,1547355360.0,82.0,43.97,-111.68,8.06,5.82
147,honiara,88.0,SB,1547358047.0,91.0,-9.43,159.96,79.76,3.13
148,motygino,12.0,RU,1547358049.0,54.0,58.18,94.69,-10.42,5.82
149,lakhdenpokhya,20.0,RU,1547358049.0,81.0,61.52,30.2,14.69,9.55
150,kolokani,24.0,ML,1547358049.0,31.0,13.58,-8.03,62.12,10.63
151,goksun,75.0,TR,1547355000.0,52.0,38.02,36.5,42.8,11.41
152,ribeira grande,44.0,PT,1547358050.0,98.0,38.52,-28.7,62.12,20.69
153,stromness,90.0,CA,1547355600.0,73.0,42.87,-79.55,23.0,12.75
154,tasiilaq,64.0,GL,1547355000.0,67.0,65.61,-37.64,17.6,8.05
155,dese,0.0,IT,1547356800.0,85.0,45.53,12.3,32.0,8.05
156,avera,90.0,US,1547356500.0,88.0,33.19,-82.53,53.6,4.7
157,new norfolk,0.0,AU,1547355600.0,40.0,-42.78,147.06,71.6,18.34
158,svetlogorsk,90.0,RU,1547355600.0,92.0,53.14,59.15,21.2,20.13
159,puerto colombia,20.0,CO,1547355600.0,78.0,10.99,-74.96,78.8,13.87
160,mangai,88.0,CD,1547358053.0,94.0,-4.07,19.59,73.46,2.28
161,narsaq,88.0,GL,1547355000.0,86.0,60.91,-46.05,32.0,10.29
162,keti bandar,0.0,PK,1547358054.0,100.0,24.14,67.45,67.25,16.82
163,luanda,76.0,AO,1547358054.0,97.0,-8.83,13.24,77.15,3.91
164,dabola,48.0,GN,1547358054.0,57.0,10.74,-11.11,61.4,3.8
165,pevek,0.0,RU,1547358055.0,72.0,69.7,170.27,-23.92,6.15
166,ust-tsilma,88.0,RU,1547358055.0,74.0,65.44,52.15,16.67,8.61
167,ilulissat,56.0,GL,1547355000.0,48.0,69.22,-51.1,-7.61,3.36
168,gap,8.0,FR,1547358056.0,100.0,44.56,6.08,20.45,4.14
169,baft,24.0,IR,1547358056.0,32.0,29.23,56.61,42.59,0.83
170,ostrovnoy,76.0,RU,1547358057.0,100.0,68.05,39.51,18.92,12.3
171,gat,0.0,SN,1547355600.0,82.0,14.69,-16.54,66.2,13.87
172,zaysan,0.0,KZ,1547358057.0,78.0,47.47,84.87,16.58,4.14
173,sitka,48.0,US,1547358058.0,89.0,37.17,-99.65,24.5,6.64
174,port-de-bouc,0.0,FR,1547355600.0,87.0,43.4,4.98,46.4,23.04
175,tessalit,12.0,ML,1547358059.0,39.0,20.2,1.01,38.63,7.76
176,virginia beach,90.0,US,1547357160.0,82.0,36.85,-75.98,42.98,6.93
177,gamba,0.0,CN,1547358059.0,62.0,28.28,88.52,18.38,8.84
178,vila velha,75.0,BR,1547355600.0,88.0,-3.71,-38.6,78.8,3.36
179,houma,64.0,CN,1547358060.0,46.0,35.63,111.36,41.15,2.13
180,santa cruz,1.0,US,1547357400.0,87.0,36.97,-122.03,55.4,2.01
181,cayenne,20.0,GF,1547355600.0,94.0,4.94,-52.33,73.4,8.28
182,nanortalik,92.0,GL,1547358062.0,94.0,60.14,-45.24,31.52,9.44
183,kodinsk,32.0,RU,1547358062.0,53.0,58.6,99.18,-10.33,6.76
184,anloga,20.0,GH,1547355600.0,88.0,5.79,0.9,82.4,5.82
185,khatanga,36.0,RU,1547358063.0,56.0,71.98,102.47,-31.93,3.06
186,victoria,75.0,BN,1547355600.0,66.0,5.28,115.24,87.8,6.93
187,gdov,56.0,RU,1547358064.0,75.0,58.74,27.82,16.58,5.53
188,coihaique,0.0,CL,1547355600.0,81.0,-45.58,-72.07,42.8,2.24
189,shitanjing,48.0,CN,1547358065.0,41.0,39.23,106.34,32.78,3.4
190,hithadhoo,24.0,MV,1547358065.0,100.0,-0.6,73.08,81.47,6.6
191,alyangula,75.0,AU,1547355600.0,100.0,-13.85,136.42,77.0,10.29
192,beaverlodge,40.0,CA,1547355600.0,85.0,55.21,-119.43,15.8,6.93
193,provideniya,20.0,RU,1547358066.0,100.0,64.42,-173.23,-8.17,24.76
194,nishihara,20.0,JP,1547355600.0,34.0,35.74,139.53,50.0,10.29
195,egvekinot,24.0,RU,1547358067.0,54.0,66.32,-179.17,-32.38,5.26
196,kalol,0.0,IN,1547355600.0,40.0,23.25,72.5,69.8,3.36
197,karlskrona,88.0,SE,1547356800.0,100.0,56.16,15.59,33.8,4.7
198,ahome,0.0,MX,1547358068.0,83.0,25.92,-109.18,57.26,2.39
199,longyearbyen,44.0,NO,1547358069.0,87.0,78.22,15.63,1.19,4.74
200,mersin,0.0,TR,1547356800.0,53.0,36.81,34.63,50.0,11.41
201,petropavlovsk-kamchatskiy,48.0,RU,1547355600.0,50.0,53.05,158.65,28.4,4.47
202,popondetta,56.0,PG,1547358019.0,90.0,-8.77,148.24,75.53,0.56
203,kysyl-syr,48.0,RU,1547358070.0,51.0,63.9,122.77,-17.44,6.82
204,shingu,20.0,JP,1547355600.0,43.0,33.72,135.99,55.4,14.99
205,dentsville,90.0,US,1547357220.0,52.0,34.06,-80.96,44.96,4.7
206,cap malheureux,40.0,MU,1547355600.0,66.0,-19.98,57.61,84.2,11.41
207,nelson bay,0.0,AU,1547355600.0,65.0,-32.72,152.14,80.6,17.22
208,henties bay,68.0,NA,1547358072.0,100.0,-22.12,14.28,61.13,3.06
209,bay roberts,75.0,CA,1547355600.0,85.0,47.58,-53.28,23.0,12.75
210,alofi,88.0,NU,1547355600.0,78.0,-19.06,-169.92,82.4,13.87
211,praia da vitoria,20.0,PT,1547355600.0,82.0,38.73,-27.07,59.0,22.37
212,vaini,0.0,IN,1547355600.0,44.0,15.34,74.49,78.8,6.93
213,nouakchott,0.0,MR,1547355600.0,11.0,18.08,-15.98,55.4,5.82
214,chisec,0.0,GT,1547358074.0,94.0,15.81,-90.29,54.02,1.79
215,fortuna,0.0,ES,1547355600.0,45.0,38.18,-1.13,48.2,13.87
216,canete,75.0,IT,1547356800.0,86.0,46.33,9.49,41.0,3.36
217,saint george,20.0,GR,1547356800.0,55.0,39.45,22.34,32.0,8.05
218,saint-augustin,75.0,FR,1547355600.0,93.0,44.83,-0.61,50.0,6.93
219,luderitz,8.0,NA,1547358076.0,90.0,-26.65,15.16,61.67,3.58
220,kloulklubed,75.0,PW,1547355000.0,70.0,7.04,134.26,84.2,11.41
221,la ronge,40.0,CA,1547355600.0,85.0,55.1,-105.3,17.6,5.82
222,imbituba,75.0,BR,1547355600.0,94.0,-28.24,-48.67,75.2,2.24
223,inuvik,5.0,CA,1547355600.0,65.0,68.36,-133.71,-34.61,2.24
224,jaicos,64.0,BR,1547358078.0,79.0,-7.36,-41.14,76.61,7.65
225,agadez,0.0,NE,1547358078.0,43.0,16.97,7.99,50.6,6.6
226,los llanos de aridane,0.0,ES,1547355600.0,67.0,28.66,-17.92,59.0,6.93
227,quelimane,80.0,MZ,1547358079.0,93.0,-17.88,36.89,80.3,6.93
228,pacific grove,1.0,US,1547356800.0,79.0,36.62,-121.92,53.6,8.05
229,porto novo,20.0,BR,1547355600.0,100.0,-23.68,-45.44,69.8,2.24
230,tuatapere,48.0,NZ,1547357897.0,87.0,-46.13,167.69,58.07,5.3
231,east london,0.0,ZA,1547355600.0,69.0,-33.02,27.91,73.4,10.29
232,richards bay,0.0,ZA,1547357952.0,80.0,-28.77,32.06,75.8,4.85
233,lagoa,0.0,PT,1547355600.0,49.0,37.14,-8.45,48.2,8.05
234,boa vista,0.0,BR,1547355600.0,73.0,2.82,-60.67,77.0,9.17
235,souillac,90.0,FR,1547355600.0,93.0,45.6,-0.6,48.2,5.82
236,oil city,90.0,US,1547355780.0,91.0,41.43,-79.71,24.08,6.93
237,buala,0.0,SB,1547358082.0,81.0,-8.15,159.59,85.25,9.95
238,havre-saint-pierre,90.0,CA,1547355600.0,66.0,50.23,-63.6,15.8,9.17
239,prince rupert,90.0,CA,1547355600.0,100.0,54.32,-130.32,42.8,2.24
240,saint-pierre,90.0,FR,1547355600.0,100.0,48.95,4.24,46.4,14.99
241,kaitangata,92.0,NZ,1547358084.0,100.0,-46.28,169.85,54.56,4.59
242,nurota,0.0,UZ,1547355600.0,56.0,40.56,65.69,41.0,16.11
243,ahipara,8.0,NZ,1547358085.0,76.0,-35.17,173.16,70.31,9.89
244,chokurdakh,76.0,RU,1547358085.0,70.0,70.62,147.9,-23.11,8.39
245,tazovskiy,88.0,RU,1547358086.0,78.0,67.47,78.7,-3.94,22.08
246,adre,0.0,TD,1547358086.0,57.0,13.47,22.2,58.7,3.24
247,varzea da palma,32.0,BR,1547358086.0,76.0,-17.6,-44.73,72.92,6.93
248,am timan,8.0,TD,1547358087.0,37.0,11.04,20.28,65.45,4.74
249,ailigandi,92.0,PA,1547358087.0,83.0,9.23,-78.02,76.16,6.31
250,taft,92.0,PH,1547358088.0,93.0,11.9,125.42,79.67,15.43
251,turayf,0.0,SA,1547355600.0,86.0,31.68,38.65,41.0,3.36
252,fianarantsoa,44.0,MG,1547358089.0,97.0,-21.45,47.09,71.48,3.29
253,bredasdorp,44.0,ZA,1547355600.0,52.0,-34.53,20.04,69.8,6.93
254,hofn,92.0,IS,1547358089.0,100.0,64.25,-15.21,35.75,24.94
255,salinopolis,100.0,BR,1547358090.0,100.0,-0.61,-47.36,78.95,9.17
256,paamiut,88.0,GL,1547358090.0,98.0,61.99,-49.67,32.15,24.94
257,ocos,12.0,GT,1547358090.0,100.0,14.51,-92.19,82.1,8.88
258,lavrentiya,0.0,RU,1547358091.0,89.0,65.58,-170.99,-10.33,30.13
259,vanavara,0.0,RU,1547358091.0,59.0,60.35,102.28,-20.59,5.3
260,aranos,0.0,NA,1547358091.0,20.0,-24.14,19.11,65.72,9.55
261,seoul,0.0,KR,1547355600.0,26.0,37.57,126.98,44.6,5.82
262,vidor,1.0,US,1547356500.0,71.0,30.13,-94.02,49.46,6.93
263,pisco,0.0,PE,1547355600.0,88.0,-13.71,-76.2,71.6,10.29
264,bumba,32.0,CD,1547358093.0,91.0,2.18,22.47,75.8,4.14
265,eydhafushi,8.0,MV,1547358093.0,100.0,5.1,73.07,81.92,11.97
266,mackay,40.0,CA,1547355600.0,92.0,53.65,-115.58,26.6,5.82
267,vardo,90.0,US,1547356800.0,84.0,39.62,-77.74,30.2,3.36
268,slidell,75.0,US,1547356920.0,93.0,30.28,-89.78,59.0,3.36
269,charters towers,56.0,AU,1547358094.0,58.0,-20.07,146.27,86.33,11.56
270,lerum,90.0,SE,1547356800.0,100.0,57.77,12.27,28.4,6.93
271,chimbote,32.0,PE,1547358095.0,100.0,-9.08,-78.59,65.27,5.82
272,oksfjord,56.0,NO,1547356800.0,80.0,70.24,22.35,30.2,16.11
273,rawson,0.0,AR,1547357829.0,67.0,-43.3,-65.11,57.35,10.67
274,san patricio,0.0,PY,1547358096.0,96.0,-26.98,-56.83,73.28,3.36
275,bethel,90.0,US,1547355360.0,82.0,60.79,-161.76,-0.94,19.46
276,basoko,48.0,CD,1547358097.0,88.0,1.23,23.61,74.63,4.59
277,lindi,75.0,TZ,1547355600.0,88.0,-10.0,39.71,78.8,11.41
278,hibbing,90.0,US,1547357580.0,92.0,47.43,-92.94,25.16,3.36
279,dudinka,76.0,RU,1547358098.0,55.0,69.41,86.18,-18.88,29.46
280,rocha,36.0,UY,1547358098.0,96.0,-34.48,-54.34,62.93,6.38
281,valer,20.0,ES,1547358098.0,58.0,41.76,-6.18,14.15,2.84
282,thunder bay,90.0,CA,1547355600.0,92.0,48.41,-89.26,17.6,8.05
283,sovetskaya gavan,0.0,RU,1547358099.0,94.0,48.97,140.29,16.22,6.38
284,dunedin,92.0,NZ,1547357949.0,100.0,-45.87,170.5,52.49,7.16
285,kamenka,80.0,RU,1547358100.0,83.0,53.19,44.05,10.73,11.9
286,rodrigues alves,0.0,BR,1547355600.0,94.0,-7.74,-72.65,73.4,2.24
287,tiksi,20.0,RU,1547358100.0,55.0,71.64,128.87,-31.84,3.36
288,shenjiamen,48.0,CN,1547358101.0,100.0,29.96,122.3,48.08,15.32
289,yerbogachen,12.0,RU,1547358101.0,51.0,61.28,108.01,-17.8,4.63
290,eureka,1.0,US,1547355300.0,89.0,40.8,-124.16,50.0,7.09
291,whitehorse,90.0,CA,1547355600.0,83.0,60.72,-135.06,-5.81,3.36
292,filingue,0.0,NE,1547358102.0,57.0,14.35,3.32,57.44,8.43
293,voh,76.0,NC,1547358102.0,95.0,-20.95,164.69,80.3,14.32
294,salta,75.0,AR,1547355600.0,88.0,-24.79,-65.41,66.2,4.7
295,sola,0.0,FI,1547356800.0,92.0,62.78,29.36,15.8,4.7
296,santa elena,68.0,EC,1547358104.0,100.0,-2.23,-80.86,76.34,11.34
297,khangarh,0.0,PK,1547355300.0,87.0,29.91,71.16,50.0,4.52
298,vrutky,90.0,SK,1547357400.0,94.0,49.11,18.92,33.8,6.93
299,lata,20.0,IN,1547358105.0,100.0,30.78,78.62,37.1,1.72
300,road town,1.0,VG,1547355180.0,84.0,18.42,-64.62,75.02,4.7
301,elizabeth city,90.0,US,1547357160.0,95.0,36.3,-76.22,43.7,8.32
302,port hardy,90.0,CA,1547355600.0,87.0,50.7,-127.42,46.4,16.11
303,arzgir,92.0,RU,1547358106.0,91.0,45.37,44.21,33.05,4.63
304,petropavlovka,64.0,RU,1547358106.0,54.0,50.61,105.32,11.18,7.31
305,nalut,0.0,LY,1547358107.0,85.0,31.86,10.98,27.92,7.27
306,shizunai,0.0,JP,1547358107.0,98.0,42.33,142.37,22.43,6.64
307,lipari,40.0,IT,1547355300.0,57.0,38.47,14.95,50.0,9.17
308,aksu,0.0,KZ,1547355600.0,84.0,52.04,76.93,-2.21,6.71
309,buin,0.0,CL,1547355600.0,67.0,-33.73,-70.74,60.8,9.17
310,khash,0.0,IR,1547358108.0,26.0,28.22,61.21,49.7,3.85
311,formosa,75.0,AR,1547355600.0,94.0,-26.19,-58.17,77.0,6.93
312,port-gentil,75.0,GA,1547355600.0,94.0,-0.72,8.78,80.6,2.24
313,padang,20.0,ID,1547353800.0,74.0,-0.92,100.36,86.0,4.7
314,bambamarca,92.0,PE,1547358110.0,95.0,-6.68,-78.52,49.34,1.34
315,princeton,90.0,US,1547356500.0,92.0,41.37,-89.46,30.02,10.29
316,beira,0.0,ES,1547355600.0,75.0,43.2,-8.36,46.4,1.12
317,colesberg,0.0,ZA,1547358111.0,38.0,-30.72,25.1,68.78,4.14
318,iskateley,76.0,RU,1547358112.0,80.0,67.68,53.15,15.05,17.83
319,vostok,0.0,RU,1547358112.0,67.0,46.45,135.83,18.29,2.57
320,roald,92.0,NO,1547356800.0,86.0,62.58,6.12,41.0,16.11
321,kaspiyskiy,48.0,RU,1547358113.0,100.0,45.39,47.37,24.5,2.91
322,capao da canoa,44.0,BR,1547358113.0,100.0,-29.75,-50.01,74.72,16.6
323,francistown,0.0,BW,1547355600.0,100.0,-21.17,27.5,69.8,9.33
324,lang son,76.0,VN,1547358114.0,89.0,21.83,106.73,69.32,4.36
325,puerto el triunfo,20.0,SV,1547355000.0,83.0,13.27,-88.55,75.2,6.93
326,kulhudhuffushi,0.0,MV,1547358115.0,100.0,6.62,73.07,81.92,9.55
327,panzhihua,0.0,CN,1547358115.0,38.0,26.59,101.72,65.99,3.36
328,bilma,0.0,NE,1547358116.0,28.0,18.69,12.92,47.72,15.21
329,atambua,32.0,ID,1547358116.0,89.0,-9.11,124.89,85.25,8.77
330,osinovo,88.0,RU,1547358117.0,88.0,62.87,42.79,23.6,7.16
331,shimoda,20.0,JP,1547355600.0,53.0,34.7,138.93,51.8,17.22
332,severo-kurilsk,32.0,RU,1547358118.0,97.0,50.68,156.12,32.15,15.59
333,east wenatchee bench,90.0,US,1547356020.0,96.0,47.43,-120.28,35.96,6.93
334,nago,20.0,IT,1547356800.0,92.0,45.88,10.89,30.2,4.7
335,dwarka,20.0,IN,1547355600.0,59.0,28.58,77.04,64.4,3.36
336,hami,76.0,CN,1547358119.0,76.0,42.84,93.51,19.64,4.25
337,hammerfest,80.0,NO,1547356800.0,80.0,70.66,23.68,30.2,16.11
338,atar,0.0,MR,1547358120.0,28.0,20.52,-13.05,51.5,8.66
339,chumikan,20.0,RU,1547358120.0,70.0,54.72,135.31,1.82,3.36
340,talaya,36.0,RU,1547355600.0,76.0,55.79,84.89,-4.01,6.71
341,iwanai,68.0,JP,1547358121.0,100.0,42.97,140.51,32.33,10.96
342,aasiaat,48.0,GL,1547358122.0,100.0,68.71,-52.87,7.22,8.95
343,murzzuschlag,8.0,AT,1547358122.0,76.0,47.6,15.68,31.7,5.75
344,zhigansk,32.0,RU,1547358123.0,49.0,66.77,123.37,-16.54,9.78
345,filadelfia,76.0,PY,1547358123.0,92.0,-22.35,-60.04,76.7,2.84
346,mareeba,75.0,AU,1547355600.0,78.0,-16.99,145.42,80.6,8.05
347,piranhas,20.0,BR,1547358124.0,87.0,-9.61,-37.76,73.55,5.75
348,beringovskiy,32.0,RU,1547358124.0,100.0,63.05,179.32,-9.07,27.11
349,mulege,12.0,MX,1547358124.0,92.0,26.88,-111.98,46.91,2.84
350,san pedro,8.0,AR,1547357973.0,81.0,-33.68,-59.66,70.58,10.63
351,sao joao da barra,68.0,BR,1547358125.0,98.0,-21.64,-41.05,78.68,12.86
352,siilinjarvi,0.0,FI,1547356800.0,92.0,63.08,27.67,14.0,8.05
353,esperance,20.0,TT,1547355600.0,83.0,10.24,-61.45,73.4,4.92
354,ashland,90.0,US,1547355480.0,92.0,38.48,-82.64,35.06,4.7
355,oktyabrskiy,90.0,RU,1547355600.0,92.0,55.61,37.97,17.6,4.47
356,pavilosta,68.0,LV,1547355000.0,100.0,56.89,21.19,33.8,3.36
357,antofagasta,75.0,CL,1547355600.0,82.0,-23.65,-70.4,64.4,10.29
358,gondanglegi,20.0,ID,1547358128.0,100.0,-7.75,112.01,78.59,3.24
359,belmonte,0.0,PT,1547358128.0,79.0,40.36,-7.35,25.85,5.64
360,araouane,12.0,ML,1547358129.0,36.0,18.9,-3.53,48.17,11.9
361,san anselmo,1.0,US,1547356500.0,100.0,37.97,-122.56,57.92,3.36
362,kalmunai,92.0,LK,1547358129.0,94.0,7.42,81.82,78.23,8.55
363,riohacha,20.0,CO,1547358052.0,96.0,11.54,-72.91,76.16,14.47
364,waconia,90.0,US,1547356680.0,80.0,44.85,-93.79,30.2,3.36
365,williams lake,90.0,CA,1547355600.0,64.0,52.13,-122.14,37.4,12.75
366,oshakati,0.0,NA,1547355600.0,33.0,-17.78,15.7,71.6,4.7
367,christchurch,100.0,NZ,1547357400.0,49.0,-43.53,172.64,69.8,6.93
368,mitsamiouli,20.0,KM,1547355600.0,78.0,-11.38,43.28,82.4,3.36
369,srednekolymsk,76.0,RU,1547357912.0,65.0,67.46,153.71,-22.12,4.14
370,portland,20.0,US,1547355360.0,55.0,45.52,-122.67,46.94,18.34
371,syracuse,1.0,US,1547356500.0,78.0,43.05,-76.15,14.0,2.28
372,saldanha,76.0,PT,1547358132.0,81.0,41.42,-6.55,20.9,3.24
373,bogota,40.0,CO,1547355600.0,87.0,4.6,-74.08,53.6,4.7
374,talcahuano,0.0,CL,1547355600.0,87.0,-36.72,-73.12,59.0,6.93
375,sibolga,68.0,ID,1547358133.0,95.0,1.74,98.78,74.9,1.72
376,neuquen,0.0,AR,1547355600.0,52.0,-38.95,-68.06,64.4,3.36
377,brae,80.0,GB,1547356800.0,87.0,60.4,-1.35,48.2,24.16
378,clyde river,1.0,CA,1547355600.0,66.0,70.47,-68.59,-32.81,5.82
379,sisimiut,68.0,GL,1547357974.0,100.0,66.94,-53.67,-12.94,1.01
380,grand forks,90.0,US,1547356560.0,92.0,47.91,-97.06,24.98,8.05
381,laguna,0.0,MX,1547358136.0,82.0,27.52,-110.01,52.31,2.01
382,nabire,56.0,ID,1547358136.0,90.0,-3.36,135.5,76.7,1.23
383,katsuura,20.0,JP,1547355600.0,79.0,33.93,134.5,50.0,12.75
384,griffith,24.0,AU,1547355600.0,14.0,-34.29,146.06,105.8,14.99
385,deputatskiy,48.0,RU,1547358137.0,54.0,69.3,139.9,-32.38,2.8
386,rhyl,75.0,GB,1547356800.0,81.0,53.32,-3.49,50.0,26.4
387,victor harbor,0.0,AU,1547355600.0,46.0,-35.55,138.62,91.4,13.87
388,mantsala,75.0,FI,1547356800.0,92.0,60.63,25.32,12.2,3.36
389,llangefni,44.0,GB,1547356800.0,87.0,53.26,-4.31,50.0,10.29
390,rio grande,92.0,BR,1547357870.0,100.0,-32.03,-52.1,70.67,10.78
391,okhotsk,0.0,RU,1547358139.0,100.0,59.36,143.24,-4.39,8.95
392,inhambane,24.0,MZ,1547358140.0,84.0,-23.87,35.38,85.52,6.31
393,malanje,48.0,AO,1547358140.0,78.0,-9.54,16.35,65.36,6.6
394,yulara,0.0,AU,1547355600.0,8.0,-25.24,130.99,109.4,14.99
395,hudson bay,12.0,CA,1547358124.0,77.0,52.86,-102.4,10.55,3.85
396,surt,92.0,LY,1547358141.0,100.0,31.21,16.59,53.3,19.73
397,wageningen,75.0,NL,1547357100.0,100.0,51.98,5.66,48.2,11.41
398,novyy urengoy,68.0,RU,1547358062.0,77.0,66.08,76.63,-3.76,21.97
399,la quinta,1.0,US,1547356500.0,93.0,33.68,-116.3,53.96,1.72
400,sousa,20.0,JP,1547355600.0,43.0,35.69,140.55,50.0,11.41
401,ryomgard,88.0,DK,1547356800.0,93.0,56.38,10.5,42.8,10.29
402,hobyo,80.0,SO,1547357875.0,75.0,5.35,48.53,77.78,19.91
403,salalah,0.0,OM,1547355000.0,31.0,17.01,54.1,75.2,12.75
404,san cristobal,90.0,EC,1547355600.0,100.0,-0.39,-78.55,55.4,1.12
405,cabedelo,0.0,BR,1547355600.0,100.0,-6.97,-34.84,73.4,6.93
406,hambantota,90.0,LK,1547352600.0,88.0,6.12,81.12,80.6,9.17
407,arica,0.0,CL,1547355600.0,73.0,-18.48,-70.32,71.6,3.36
408,opunake,36.0,NZ,1547358145.0,86.0,-39.45,173.86,67.88,18.39
409,necochea,92.0,AR,1547357873.0,99.0,-38.55,-58.74,62.3,2.35
410,yarkovo,24.0,RU,1547355600.0,84.0,54.81,82.6,-0.41,13.42
411,ancud,0.0,CL,1547355600.0,100.0,-41.87,-73.83,42.8,6.93
412,mankono,0.0,CI,1547358147.0,91.0,8.06,-6.19,68.87,2.62
413,acapulco,40.0,MX,1547354940.0,83.0,16.86,-99.88,78.8,4.29
414,mitchell,90.0,US,1547355180.0,87.0,43.71,-98.03,23.0,5.82
415,goundam,0.0,ML,1547358148.0,35.0,16.42,-3.66,60.05,13.69
416,xai-xai,36.0,MZ,1547358148.0,90.0,-25.04,33.64,80.48,10.78
417,sioux lookout,90.0,CA,1547355600.0,85.0,50.1,-91.92,17.6,6.93
418,pakxan,0.0,LA,1547358149.0,54.0,18.39,103.66,84.71,2.24
419,lethem,0.0,GY,1547358149.0,67.0,3.38,-59.8,76.97,10.29
420,junin,75.0,PE,1547355600.0,81.0,-16.45,-71.58,53.6,2.39
421,miracema,20.0,BR,1547358041.0,94.0,-21.41,-42.2,70.4,3.91
422,adiake,20.0,CI,1547355600.0,83.0,5.29,-3.3,82.4,6.93
423,baherden,0.0,TM,1547358151.0,76.0,38.44,57.43,41.6,2.51
424,port lincoln,0.0,AU,1547358151.0,62.0,-34.72,135.86,75.98,13.58
425,geraldton,20.0,CA,1547355600.0,75.0,49.72,-86.95,-16.61,3.91
426,ambilobe,44.0,MG,1547358152.0,100.0,-13.19,49.05,80.03,5.3
427,caravelas,92.0,BR,1547358152.0,100.0,-17.73,-39.27,79.85,9.44
428,tual,88.0,ID,1547358153.0,100.0,-5.67,132.75,83.72,15.7
429,makakilo city,90.0,US,1547355780.0,73.0,21.35,-158.09,78.08,4.7
430,vila franca do campo,75.0,PT,1547355600.0,67.0,37.72,-25.43,59.0,9.17
431,svetogorsk,0.0,FI,1547356800.0,92.0,61.11,28.87,14.0,6.93
432,grong,92.0,NO,1547358155.0,96.0,64.47,12.32,31.25,3.24
433,kamina,92.0,CD,1547358155.0,100.0,-8.74,25.0,66.62,4.36
434,barranca,36.0,PE,1547358155.0,100.0,-10.75,-77.76,70.04,13.8
435,aklavik,5.0,CA,1547355600.0,65.0,68.22,-135.01,-34.61,2.24
436,ulladulla,92.0,AU,1547358156.0,93.0,-35.36,150.48,71.93,10.56
437,san jose,12.0,PH,1547358157.0,60.0,15.79,120.99,82.73,4.81
438,berdigestyakh,8.0,RU,1547358157.0,64.0,62.1,126.7,-22.03,5.86
439,yabrud,0.0,SY,1547355600.0,86.0,33.97,36.66,30.2,4.7
440,yatou,40.0,CM,1547355600.0,100.0,3.63,9.81,77.0,3.8
441,natal,40.0,BR,1547355600.0,78.0,-5.81,-35.21,78.8,6.93
442,teahupoo,90.0,PF,1547357940.0,74.0,-17.83,-149.27,82.4,14.99
443,manokwari,44.0,ID,1547358159.0,100.0,-0.87,134.08,80.03,3.51
444,nyurba,44.0,RU,1547358160.0,76.0,63.29,118.35,-11.68,3.8
445,ballarat,0.0,AU,1547358160.0,41.0,-37.56,143.86,78.23,14.58
446,morlaix,90.0,FR,1547355600.0,100.0,48.58,-3.83,50.0,13.87
447,aksay,75.0,RU,1547355600.0,100.0,47.27,39.86,30.2,8.95
448,trelew,0.0,AR,1547358162.0,67.0,-43.25,-65.31,57.35,10.67
449,oume,0.0,CI,1547358162.0,94.0,6.38,-5.42,70.4,5.37
450,half moon bay,1.0,US,1547356500.0,81.0,37.46,-122.43,57.92,8.43
451,ducheng,88.0,CN,1547358162.0,100.0,30.54,114.9,48.89,3.06
452,cairns,75.0,AU,1547355600.0,78.0,-16.92,145.77,80.6,8.05
453,trincomalee,92.0,LK,1547358078.0,99.0,8.58,81.23,76.43,8.84
454,litovko,32.0,RU,1547358163.0,83.0,49.24,135.18,5.78,3.02
455,jonkoping,80.0,SE,1547356800.0,92.0,57.78,14.16,28.4,8.05
456,puerto madero,40.0,AR,1547355600.0,78.0,-34.61,-58.36,77.0,11.41
457,marand,20.0,IR,1547357400.0,63.0,38.43,45.77,28.4,4.7
458,peterhead,0.0,AU,1547355600.0,40.0,-34.83,138.5,91.4,13.87
459,erenhot,0.0,CN,1547358166.0,42.0,43.65,111.97,26.39,8.66
460,ewa beach,90.0,US,1547355780.0,73.0,21.32,-158.01,78.08,4.7
461,belaya gora,64.0,RU,1547358166.0,76.0,68.54,146.19,-37.42,3.51
462,kudahuvadhoo,36.0,MV,1547357978.0,100.0,2.67,72.89,82.46,12.19
463,labuhan,92.0,ID,1547358167.0,93.0,-2.54,115.51,76.79,2.51
464,mezen,88.0,RU,1547358167.0,89.0,65.85,44.24,25.04,6.42
465,aksarka,68.0,RU,1547358168.0,81.0,66.56,67.8,3.53,15.99
466,dodoma,20.0,TZ,1547355600.0,94.0,-6.18,35.75,69.8,4.7
467,port hedland,0.0,AU,1547355600.0,53.0,-20.31,118.58,98.6,18.34
468,nome,1.0,US,1547356500.0,71.0,30.04,-94.42,48.92,6.93
469,sinnamary,88.0,GF,1547358170.0,96.0,5.38,-52.96,78.23,10.89
470,dezhou,0.0,CN,1547358170.0,25.0,37.45,116.31,48.08,7.61
471,vao,56.0,EE,1547358170.0,83.0,59.1,26.19,14.24,4.14
472,chunian,56.0,PK,1547358171.0,100.0,30.96,73.98,53.48,4.63
473,ngunguru,76.0,NZ,1547358171.0,90.0,-35.62,174.5,71.39,11.63
474,tsaratanana,0.0,MG,1547358171.0,78.0,-16.8,47.65,82.19,4.25
475,dumka,0.0,IN,1547358172.0,56.0,24.27,87.25,76.16,4.59
476,teya,5.0,MX,1547354640.0,73.0,21.05,-89.07,69.8,8.05
477,beisfjord,76.0,NO,1547356800.0,100.0,68.38,17.6,19.4,9.17
478,mao,20.0,DO,1547355600.0,100.0,19.55,-71.08,69.8,6.31
479,mecca,0.0,SA,1547357955.0,64.0,21.43,39.83,71.12,2.57
480,afonso bezerra,68.0,BR,1547358174.0,94.0,-5.5,-36.51,73.64,3.02
481,mawlaik,56.0,MM,1547358174.0,77.0,23.63,94.42,70.13,2.8
482,puro,68.0,PH,1547358175.0,84.0,13.13,123.76,79.58,11.56
483,indian head,0.0,CA,1547358175.0,78.0,50.53,-103.67,14.6,9.4
484,kyren,32.0,RU,1547358176.0,54.0,51.68,102.13,0.2,2.35
485,puerto ayacucho,92.0,CO,1547358176.0,76.0,5.66,-67.63,77.6,4.41
486,konnur,0.0,IN,1547358176.0,48.0,15.86,75.5,79.85,9.28
487,beitbridge,12.0,ZA,1547358177.0,70.0,-22.21,29.99,80.84,13.8
488,adrar,0.0,DZ,1547355600.0,47.0,27.87,-0.29,33.8,10.29
489,smidovich,32.0,RU,1547358178.0,65.0,48.6,133.81,9.11,3.91
490,marsabit,0.0,KE,1547358178.0,48.0,2.34,37.99,73.1,8.1
491,guaruja,75.0,BR,1547355600.0,78.0,-23.99,-46.26,71.6,2.24
492,petauke,92.0,ZM,1547358179.0,100.0,-14.25,31.33,68.24,5.26
493,coahuayana,32.0,MX,1547358179.0,82.0,18.62,-100.35,58.07,2.57
494,homer,90.0,US,1547355180.0,84.0,59.64,-151.54,26.06,10.29
495,harindanga,0.0,IN,1547355600.0,56.0,22.04,88.32,71.6,8.05
496,madras,90.0,US,1547356500.0,100.0,44.63,-121.13,30.2,5.82
497,bandarbeyla,0.0,SO,1547358181.0,98.0,9.49,50.81,77.96,18.68
498,warmbad,56.0,DE,1547356800.0,86.0,50.67,13.08,39.2,13.87
499,zanjan,40.0,IR,1547355600.0,44.0,36.67,48.48,39.2,11.41
500,bambanglipuro,44.0,ID,1547358182.0,73.0,-7.95,110.28,85.61,6.38
501,lasa,75.0,CY,1547355600.0,71.0,34.92,32.53,55.4,11.41
502,pontes e lacerda,44.0,BR,1547358183.0,92.0,-15.23,-59.33,71.75,3.91
503,mount isa,40.0,AU,1547355600.0,14.0,-20.73,139.49,104.0,19.46
504,povenets,8.0,RU,1547358183.0,83.0,62.85,34.83,19.1,8.28
505,kovernino,92.0,RU,1547358184.0,87.0,57.13,43.81,12.98,9.62
506,shawnee,90.0,US,1547356500.0,84.0,35.33,-96.93,33.8,13.87
507,tamale,12.0,GH,1547358184.0,47.0,9.4,-0.84,66.98,4.14
508,saint-georges,0.0,CA,1547358025.0,77.0,46.12,-70.67,-0.88,4.63
509,toamasina,20.0,MG,1547355600.0,74.0,-18.17,49.38,86.0,5.82
510,kuala terengganu,75.0,MY,1547355600.0,94.0,5.33,103.14,77.0,6.93
511,batangafo,8.0,CF,1547358186.0,54.0,7.3,18.29,66.53,4.14
512,villa bruzual,8.0,VE,1547358186.0,77.0,9.33,-69.12,72.47,9.33
513,smithers,90.0,CA,1547356080.0,100.0,54.78,-127.17,33.8,2.24
514,phan thiet,12.0,VN,1547358187.0,76.0,10.93,108.1,84.08,17.0
515,kushima,40.0,JP,1547355600.0,51.0,31.5,131.29,60.8,6.93
516,qostanay,90.0,KZ,1547355600.0,85.0,53.17,63.58,19.4,26.84
517,fairbanks,75.0,US,1547355480.0,72.0,64.84,-147.72,-14.08,4.14
518,tiarei,90.0,PF,1547357940.0,74.0,-17.53,-149.33,82.4,14.99
519,wicklow,75.0,IE,1547357400.0,87.0,53.0,-6.42,48.2,24.16
520,tautira,90.0,PF,1547357940.0,74.0,-17.73,-149.15,82.4,14.99
521,palmerston,75.0,CA,1547355600.0,66.0,43.83,-80.85,14.0,6.93
522,campagna,20.0,IT,1547355300.0,63.0,40.66,15.11,30.2,23.04
523,bosaso,0.0,SO,1547355600.0,69.0,11.28,49.18,75.2,6.42
524,kropotkin,92.0,RU,1547358190.0,100.0,45.43,40.58,33.32,4.36
525,kaili,32.0,ID,1547358191.0,65.0,-3.46,120.21,83.72,3.85
526,paldiski,20.0,EE,1547356800.0,100.0,59.35,24.08,26.6,2.24
527,keuruu,0.0,FI,1547356800.0,92.0,62.26,24.71,12.2,4.7
528,japura,88.0,ID,1547357948.0,98.0,-0.42,102.29,76.52,2.91
529,veraval,90.0,FR,1547355600.0,93.0,49.65,0.71,50.0,11.41
530,shumyachi,88.0,RU,1547358192.0,91.0,53.86,32.43,24.68,9.1
531,borba,0.0,PT,1547358116.0,70.0,38.81,-7.46,25.22,5.41
532,tiszaluc,92.0,HU,1547358193.0,93.0,48.03,21.08,22.7,3.29
533,karratha,0.0,AU,1547358193.0,14.0,-20.74,116.85,113.96,8.28
534,bodaybo,44.0,RU,1547358193.0,57.0,57.85,114.2,-7.54,2.84
535,naze,12.0,NG,1547358194.0,90.0,5.43,7.07,71.03,4.14
536,powell river,90.0,CA,1547356800.0,100.0,49.84,-124.52,42.8,3.36
537,juneau,90.0,US,1547355600.0,100.0,58.3,-134.42,35.06,4.7
538,yuyao,90.0,CN,1547355600.0,70.0,30.04,121.15,44.6,8.95
539,wanning,75.0,AT,1547356800.0,93.0,48.64,13.53,35.6,8.05
540,gotsu,20.0,JP,1547355600.0,54.0,35.01,132.22,53.6,8.05
541,esso,0.0,RU,1547358196.0,80.0,55.93,158.7,1.37,1.83
542,riyadh,0.0,SA,1547355600.0,28.0,24.63,46.72,55.4,2.24
543,istanbul,75.0,TR,1547356800.0,69.0,41.01,28.95,37.4,12.75
544,kabarnet,75.0,KE,1547355600.0,71.0,0.5,35.74,51.8,9.17
545,wuchang,92.0,CN,1547358197.0,71.0,44.93,127.16,27.02,5.14
546,vizinga,68.0,RU,1547358198.0,80.0,61.08,50.08,14.69,6.6
547,marzuq,0.0,YE,1547358198.0,40.0,14.4,46.47,62.3,2.8
548,shelburne,1.0,CA,1547355600.0,100.0,44.08,-80.2,15.8,8.28
549,chapleau,0.0,CA,1547358199.0,47.0,47.85,-83.4,-16.36,2.51
550,ankazoabo,48.0,MG,1547358199.0,94.0,-22.29,44.51,76.79,4.41
551,sri aman,75.0,MY,1547355600.0,94.0,1.24,111.46,78.8,3.36
552,synya,80.0,RU,1547358200.0,77.0,65.37,58.04,14.06,11.3
553,buchanan,24.0,LR,1547358200.0,99.0,5.88,-10.05,80.57,3.4
554,neiafu,75.0,TO,1547355600.0,83.0,-18.65,-173.98,80.6,9.17
555,gerede,88.0,TR,1547358201.0,95.0,40.8,32.2,27.74,3.24
